source,HCODE,SIGUNGU,EUPMYEON,name,address,type_name,type_code,assigned_pop,capacity_est,p_elderly,p_child,vuln,pressure,priority,lat,lon
민방위,4825055000,김해시,북부동,,,,,80740.0,1686.0,0.13137230616794648,0.06631161753777558,0.1118540995788952,47.88849347568209,432485.77342823247,35.251114,128.874842
통합,4833025300,양산시,물금읍,동산경로당,경상남도 양산시 물금읍 원동로 59 (삼전무지개맨션),한파쉼터,1,116545.0,3908.0,0.12804496117379552,0.09373203483632932,0.11775108327255565,29.822159672466736,409258.44383316266,35.3137223,128.9862621
통합,4825054000,김해시,내외동,내외동행정복지센터,경상남도 김해시 내동 1116-4,한파쉼터,1,67974.0,1686.0,0.15632447700591404,0.04545855768382028,0.12306470120928589,40.31672597864769,337257.4761565836,35.235207,128.864637
민방위,5011066000,제주시,노형동,,,,,54582.0,1458.0,0.12276941116118867,0.07354072771243267,0.10800080612656186,37.43621399176955,220682.7378600823,33.483358,126.4731
통합,4159025900,화성시,향남읍,서봉마을2단지경로당(하길6리),경기도 화성시 향남읍 상신하길로356번길 29-16 (서봉마을2단지아파트),한파쉼터,1,85623.0,3908.0,0.11260992957499737,0.07740910736601146,0.10204968291230158,21.909672466734904,191442.3360798362,37.1196745,126.9170344
통합,4128554000,고양시 일산동구,풍산동,"풍1,7통경로당",경기도 고양시 일산동구 숲속마을2로 146 (풍동),한파쉼터,1,37074.0,1046.0,0.17950585315854778,0.05772239305173437,0.14297081512650375,35.443594646271514,187868.77342256217,37.6728152,126.7975263
민방위,4613078000,여수시,쌍봉동,,,,,31058.0,752.0,0.14975207675961105,0.06536158155708674,0.12443492819885375,41.30053191489362,159614.16569148935,34.764958,127.657508
통합,1150059000,강서구,화곡본동,초록동어르신사랑방,서울특별시 강서구 초록마을로14길 36  (화곡동),한파쉼터,1,31980.0,997.0,0.18595997498436523,0.03539712320200125,0.14079111944965603,32.07622868605817,144423.21965897692,37.5411212,126.8484604
통합,2623076000,부산진구,개금3동,개금사회복지관경로당,"부산광역시 부산진구 백양관문로77번길 140 , 개금2지구도개공영구임대아파트 109동 (개금동)",한파쉼터,1,25724.0,990.0,0.2730912766288291,0.041206655263567094,0.2035258902192505,25.983838383838386,136038.38585858585,35.1632114,129.0236763
민방위,2817758000,미추홀구,학익1동,,,,,41113.0,1650.0,0.15520638240945686,0.07778561525551529,0.1319801522632744,24.916969696969698,135201.9692727273,37.439811,126.66275
통합,3023054600,대덕구,중리동,쌍청경로당,대전광역시 대덕구 중리동 101-1,한파쉼터,1,17622.0,419.0,0.24021109976166155,0.028657360118034277,0.17674497786857335,42.05727923627685,130991.60190930785,36.364399,127.433952
통합,4148057000,파주시,운정3동,파주중앙새마을금고한빛지점,경기도 파주시 와석순환로 66 (야당동),한파쉼터,1,67820.0,3908.0,0.12390150398112651,0.08046299026835742,0.11086994986729579,17.354145342886387,130489.28966223131,37.7102855,126.751754
통합,5011063000,제주시,아라동,아라주공아파트경로당,제주특별자치도 제주시 인다12길 1,한파쉼터,1,40742.0,1458.0,0.11320013745029699,0.0985469540032399,0.10880418241617985,27.9437585733882,123871.88737997256,33.473945,126.547288
민방위,1135058000,노원구,월계3동,,,,,27956.0,1250.0,0.24992845900701102,0.05483617112605523,0.1914007726427243,22.3648,119669.57184,37.617228,127.066458
통합,4148056000,파주시,운정2동,파주중앙새마을금고산내지점,경기도 파주시 교하로 87 (목동동),한파쉼터,1,63535.0,3908.0,0.11473990713779807,0.09786731722672543,0.10967813016447628,16.257676560900716,113289.99334698055,37.7276409,126.7339495
민방위,2653067000,사상구,학장동,,,,,25515.0,1158.0,0.26952772878698805,0.03872232020380169,0.20028610621203213,22.033678756476682,112598.70854922279,35.139036,128.983981
통합,5011052000,제주시,일도2동,천수경로당,제주특별자치도 제주시 동광로18길 9 (일도이동),한파쉼터,1,30990.0,1458.0,0.21187479832203937,0.06495643756050339,0.16779929009357855,21.255144032921812,110528.87448559671,33.5078052,126.5417343
민방위,3023053300,대덕구,비래동,,,,,14567.0,367.0,0.2483009542115741,0.03267659778952427,0.18361364728495916,39.69209809264305,106164.45476839237,36.358014,127.450633
통합,4825059000,김해시,삼안동,동부노인종합복지관,경상남도 김해시 신어산길 46 (삼방동),한파쉼터,1,35443.0,1686.0,0.18274412436870469,0.044578619191377705,0.14129447281550658,21.02194543297746,105275.80053380782,35.2575083,128.907051
통합,3023055000,대덕구,신탄진동,신탄진1통경로당,대전광역시 대덕구 신탄진동 100-7,한파쉼터,1,16048.0,419.0,0.20930957128614158,0.058449651046859424,0.16405159521435692,38.30071599045346,100834.29498806682,36.4534259,127.4343024
통합,1135062500,노원구,중계2.3동,"중계2,3동주민센터",서울특별시 노원구 노원로17길 56 (중계동),한파쉼터,1,31733.0,2000.0,0.2662843097091356,0.041691614407714364,0.1989065011187092,15.8665,100147.76134999999,37.6420765,127.0687455
통합,1150064000,강서구,방화2동,방화어르신사랑방,"서울특별시 강서구 개화동로23길 26 , 방화2동경로당 (방화동)",한파쉼터,1,22947.0,997.0,0.2527999302741099,0.03747766592582909,0.18820325096962567,23.0160481444333,99399.4071213641,37.5666716,126.8070831
통합,1150064100,강서구,방화3동,방화6단지어르신사랑방,"서울특별시 강서구 금낭화로23길 25 (방화동, 방화6단지아파트)",한파쉼터,1,21483.0,997.0,0.28664525438718985,0.04422101196294745,0.2139179816599171,21.54764292878636,99024.34784353059,37.5778926,126.8108645
통합,2729062400,달서구,상인1동,아이엠뱅크상인지점,대구광역시 달서구 상인서로 51  (상인동),한파쉼터,1,32705.0,1706.0,0.202660143708913,0.05173520868368751,0.15738266320134534,19.170574443141852,98674.78077373972,35.8147451,128.5434814
통합,4163052000,양주시,양주2동,만송4통휴먼시아5차경로당,"경기도 양주시 고읍북로 15 (만송동, 은빛마을휴먼시아)",한파쉼터,1,49090.0,3908.0,0.19309431656141782,0.058015889183133024,0.15257078834793236,12.561412487205732,94081.21110542477,37.7975629,127.0818894
통합,2635065000,해운대구,재송1동,재송1동행정복지센터,부산광역시 해운대구 재반로63번길 23,한파쉼터,1,36210.0,1910.0,0.16128141397404033,0.07738193869096935,0.13611157138911903,18.958115183246072,93436.9664921466,35.1846281,129.1251969
통합,2623078000,부산진구,범천2동,선록경로당,부산광역시 부산진구 엄광로326번가길 21 (범천동),한파쉼터,1,21573.0,990.0,0.25726602697816714,0.054698002132295,0.19649561952440547,21.79090909090909,92371.6636363636,35.1519773,129.0440127
민방위,4128555200,고양시 일산동구,백석2동,,,,,20029.0,608.0,0.18408307953467473,0.028758300464326727,0.1374856458135703,32.942434210526315,90713.58108552631,37.646464,126.783469
민방위,2623067000,부산진구,당감1동,,,,,20364.0,990.0,0.2956688273423689,0.03029856609703398,0.2160577489687684,20.56969696969697,90502.55272727272,35.167803,129.027356
민방위,2729060100,달서구,월성1동,,,,,39888.0,1706.0,0.09218311271560369,0.08561472121941437,0.09021259526674688,23.3810082063306,84134.21992966002,35.824542,128.534656
민방위,1135067000,노원구,상계5동,,,,,22331.0,1200.0,0.26420670816353947,0.03045094263579777,0.19407997850521694,18.609166666666667,80652.12833333331,37.663625,127.068475
민방위,5115061500,강릉시,강남동,,,,,15957.0,766.0,0.32750517014476405,0.0358463370307702,0.24000752021056587,20.83159268929504,79780.83368146213,37.751117,128.905042
통합,4148055000,파주시,운정1동,파주중앙새마을금고본점,경기도 파주시 경의로 1218 (와동동),한파쉼터,1,53105.0,3908.0,0.12294510874682234,0.08123528857922983,0.11043216269654459,13.588792221084955,79691.47198055271,37.7260456,126.7614716
민방위,4143056000,의왕시,청계동,,,,,36565.0,2606.0,0.18908792561192397,0.06544509777109257,0.15199507725967457,14.031082118188795,77980.54508825787,37.391961,127.001083
통합,4163054000,양주시,회천2동,덕계근린공원게이트볼경로당,경기도 양주시 평화로 1461 (덕계동),한파쉼터,1,46140.0,3908.0,0.16298222800173384,0.08836150845253576,0.14059601213697442,11.806550665301945,76590.27482088025,37.8209601,127.0465602
통합,5211169200,전주시 완산구,평화2동,청송(두산푸른솔),"전북특별자치도 전주시 완산구 평화동2가 양지1길 16-3 (평화동2가, 두산푸른솔아파트)",한파쉼터,1,42459.0,3908.0,0.21055606585176287,0.05692550460444193,0.16446689747756657,10.864636642784033,75868.84414022518,35.7908278,127.1185559
통합,4888025000,거창군,거창읍,상림제2경로당(무궁화경로당),경상남도 거창군 거창읍 죽전1길 38-7,한파쉼터,1,39773.0,3908.0,0.22862243230332135,0.06014130188821562,0.17807809317878964,10.17732855680655,72082.96496929377,35.690684,127.909159
통합,2635055200,해운대구,좌2동,좌2동행정복지센터,부산광역시 해운대구 좌동순환로 302,한파쉼터,1,29996.0,1910.0,0.1977597012935058,0.047106280837444996,0.15256367515668756,15.704712041884816,71869.47371727749,35.1691093,129.1826012
민방위,4157051500,김포시,김포본동,,,,,57365.0,6592.0,0.17533339144077398,0.07012987012987013,0.1437723350475028,8.702214805825243,71771.51661104367,37.623539,126.708431
통합,4145062000,하남시,미사2동,미사도서관,경기도 하남시 미사강변대로226번길 79 (망월동),한파쉼터,1,46284.0,3908.0,0.14741595367729668,0.0868118572292801,0.1292347247428917,11.843398157625384,70841.28607983622,37.5676375,127.1872938
통합,1154561000,금천구,독산1동,모두의마을공간커뮤니티센터(1층다목적홀),서울특별시 금천구 벚꽃로 14 (독산동),한파쉼터,1,47187.0,3908.0,0.15196982219679148,0.05499396020090279,0.12287706359802487,12.07446264073695,70010.14928352098,37.4572563,126.8944073
통합,4159061000,화성시,동탄7동,더레이크시티부영4단지경로당,"경기도 화성시 동탄대로6길 20 경로당 (산척동, 더레이크시티부영4단지)",한파쉼터,1,57283.0,3908.0,0.0676291395352897,0.11436202712846744,0.08164900581324303,14.657881269191403,68556.37648413512,37.167257,127.108954
민방위,4623055000,광양시,금호동,,,,,9672.0,198.0,0.1869313482216708,0.04590570719602978,0.14462365591397847,48.84848484848485,68329.26060606059,34.937894,127.732703
통합,4145061000,하남시,미사1동,미사강변28단지아파트,경기도 하남시 미사강변동로 50-2,한파쉼터,1,53578.0,3908.0,0.1034006495203255,0.0667251483817985,0.0923979991787674,13.709825997952917,67870.49360286591,37.560464,127.195569
통합,3023060000,대덕구,법1동,그린통합쉼터,대전광역시 대덕구 법동 372,한파쉼터,1,12071.0,419.0,0.25507414464418854,0.05169414298732499,0.19406014414712947,28.809069212410503,67485.2446300716,36.372278,127.428309
통합,4161055000,광주시,탄벌동,보훈회관,경기도 광주시 파발로 205,한파쉼터,1,42586.0,3908.0,0.17822758653078477,0.05492415347766872,0.14123655661484996,10.8971340839304,65542.99237461618,37.416774,127.249257
통합,4613070000,여수시,여서동,현대산업아파트경로당,전라남도 여수시 여서동 480-4,한파쉼터,1,15571.0,752.0,0.2744203968916576,0.036991843812215014,0.2031918309678248,20.706117021276597,65512.08364361703,34.7504653,127.7034539
통합,4311259000,청주시 서원구,성화.개신.죽림동,성동신협,"충청북도 청주시 서원구 모충로 25 , 성동신협 (개신동)",한파쉼터,1,41884.0,3908.0,0.1694919300926368,0.051547130169038294,0.13410849011555723,10.717502558853633,60200.21187308085,36.6251555,127.4668284
민방위,4128559000,고양시 일산동구,장항2동,,,,,26573.0,1405.0,0.15877018025815678,0.02574041320136981,0.11886125014112069,18.913167259786476,59737.23879003558,37.663511,126.768492
통합,4136057000,남양주시,별내동,미리내마을4-3단지아파트경로당,경기도 남양주시 별내동 1043,한파쉼터,1,41452.0,3908.0,0.15894095651649479,0.08089982510101924,0.1355286170918521,10.606960081883317,59589.18296670475,37.6462902,127.1114838
통합,4136057000,남양주시,별내동,우미린아파트경로당,"경기도 남양주시 별내5로 189-130 (별내동, 별내우미린스타포레)",한파쉼터,1,41452.0,3908.0,0.15894095651649479,0.08089982510101924,0.1355286170918521,10.606960081883317,59589.18296670475,37.665156,127.1314001
민방위,2650074000,수영구,망미1동,,,,,12654.0,640.0,0.3206100837679785,0.04350403034613561,0.23747826774142564,19.771875,59415.47296875001,35.177669,129.099283
통합,2635053000,해운대구,중1동,중1동행정복지센터,부산광역시 해운대구 중동1로37번길 20 (중동),한파쉼터,1,27168.0,1910.0,0.189708480565371,0.06629122497055359,0.15268330388692578,14.224083769633507,59002.921884816744,35.1625734,129.1641757
통합,2638060100,사하구,다대1동,서부할머니경로당,부산광역시 사하구 다대동로 14 (다대동),한파쉼터,1,34942.0,3908.0,0.24543529277087744,0.046305305935550344,0.1856962967202793,8.94114636642784,58015.52231320368,35.0547904,128.9718142
통합,4139063100,시흥시,장곡동,장현17단지경로당,경기도 시흥시 장곡동 901,한파쉼터,1,46784.0,3908.0,0.09306600547195622,0.12247777017783858,0.1018895348837209,11.971340839303991,57064.98751279426,37.376441,126.7839324
민방위,2644058000,강서구,가덕도동,,,,,4225.0,86.0,0.3715976331360947,0.023668639053254437,0.2672189349112426,49.127906976744185,55465.40697674418,35.052561,128.830706
민방위,1168065600,강남구,도곡2동,,,,,32220.0,2742.0,0.17548106765983862,0.07048417132216014,0.14398199875853507,11.75054704595186,54511.96280087527,37.486925,127.051903
통합,4111760000,수원시 영통구,광교1동,써밋플레이스광교,경기도 수원시 영통구 센트럴타운로 85,한파쉼터,1,53793.0,3908.0,0.07320655103823917,0.07385719331511535,0.07340174372130202,13.764841351074718,54350.47607471852,37.2907033,127.050219
통합,4159059000,화성시,동탄5동,중흥경로회,"경기도 화성시 동탄대로24길 74 (영천동, 동탄중흥에스클래스파크더테라스)",한파쉼터,1,48463.0,3908.0,0.0830324164826775,0.10653488228132803,0.09008315622227266,12.400972364380758,54138.92505117707,37.2160441,127.1103358
통합,4128555200,고양시 일산동구,백석2동,현대밀라트1차경로당,경기도 고양시 일산동구 백석동 1316,한파쉼터,1,20029.0,1046.0,0.18408307953467473,0.028758300464326727,0.1374856458135703,19.148183556405353,52728.35305927342,37.639288,126.790682
통합,1144073000,마포구,성산2동,마포구청지하1층다목적체육실,서울특별시 마포구 월드컵로 212 (성산동),한파쉼터,1,38264.0,3908.0,0.18181580597951078,0.04309533765419193,0.14019966548191512,9.791197543500513,52525.858341862855,37.5667254,126.9014239
통합,4611075600,목포시,상동,서희스타힐스경로당,"전라남도 목포시 영산로 719-29 (석현동, 목포석현 서희스타힐스)",한파쉼터,1,21462.0,1433.0,0.20263721927127015,0.06537135402106048,0.16145745969620726,14.976971388695045,51898.20125610608,34.8257908,126.4176285
통합,4111755000,수원시 영통구,원천동,광교중흥S클래스경로당,"경기도 수원시 영통구 광교호수공원로 277 (원천동, 광교중흥에스클래스)",한파쉼터,1,45579.0,3908.0,0.10177932819939008,0.08751837469009852,0.0975010421466026,11.662998976458546,51830.367451381775,37.2823251,127.0579469
통합,4163057000,양주시,옥정1동,회천4동게이트볼경로당,경기도 양주시 회암동 113-4,한파쉼터,1,41249.0,3908.0,0.11636645736866348,0.11185725714562778,0.11501369730175276,10.555015353121801,50075.10383828045,37.8452342,127.0990751
통합,2635066000,해운대구,재송2동,재송2동행정복지센터,부산광역시 해운대구 재반로125번길 26,한파쉼터,1,21605.0,1910.0,0.2724369358944689,0.028280490627169638,0.19919000231427908,11.311518324607329,48679.11910994763,35.1896431,129.1253407
민방위,3023060000,대덕구,법1동,,,,,12071.0,588.0,0.25507414464418854,0.05169414298732499,0.19406014414712947,20.52891156462585,48088.97534013606,36.369069,127.424883
통합,4146351000,용인시 기흥구,신갈동,파크시엘아파트경로당,"경기도 용인시 기흥구 새천년로 40 (신갈동, 파크시엘)",한파쉼터,1,36322.0,3908.0,0.17515555310830902,0.06197345961125489,0.14120092505919277,9.294268167860798,47667.51315250767,37.2888809,127.1136725
통합,4420059000,아산시,온양3동,권곡12통경로당,"충청남도 아산시 문화로 257-24 (권곡동, 서해그랑블2차아파트)",한파쉼터,1,38755.0,3908.0,0.1416333376338537,0.07410656689459424,0.12137530641207586,9.916837256908904,46647.81077277379,36.7899293,127.0174992
민방위,4128556000,고양시 일산동구,마두1동,,,,,11306.0,360.0,0.1678754643552096,0.042897576508048825,0.13038209800106138,31.405555555555555,46294.92944444444,37.657511,126.793411
통합,1150060400,강서구,가양2동,가양4단지어르신사랑방,"서울특별시 강서구 양천로57길 37 (가양동, 가양4단지아파트)",한파쉼터,1,13012.0,997.0,0.3734245312019674,0.030126037503842608,0.27043498309252995,13.051153460381144,45925.7039117352,37.5646525,126.852597
민방위,4128557000,고양시 일산동구,마두2동,,,,,15262.0,688.0,0.1716681955182807,0.050910758747215304,0.13544096448696105,22.183139534883722,45854.76773255813,37.652336,126.778158
민방위,2653068000,사상구,엄궁동,,,,,23403.0,1864.0,0.2002734692133487,0.04986540187155493,0.15515104901081056,12.555257510729614,45588.14002145922,35.134669,128.9777
민방위,3023061000,대덕구,법2동,,,,,7284.0,235.0,0.2619260072757224,0.0402223900061775,0.19541492209485892,30.995744680851065,44119.414037675444,36.371733,127.431903
통합,4427051000,당진시,당진1동,구터미널기업은행버스승강장,"충청남도 당진시 당진중앙2로 103-8 (읍내동, 진원스타타워)",한파쉼터,1,40794.0,3908.0,0.09530813354905134,0.12131686032259646,0.10311075158111487,10.438587512794268,43907.83065506653,36.8942703,126.6308025
통합,4111156600,수원시 장안구,율천동,화서역푸르지오더에듀포레(아)경로당,"경기도 수원시 장안구 화산로 85 , 208동 (천천동, 천천 푸르지오)",한파쉼터,1,39488.0,3908.0,0.13436993517017828,0.048597042139384115,0.10863806726094002,10.104401228249744,43346.870829068575,37.2911548,126.9805529
통합,4146551000,용인시 수지구,풍덕천1동,풍덕천4통경로당,경기도 용인시 수지구 풍덕천로140번길 8 (풍덕천동),한파쉼터,1,34704.0,3908.0,0.1670700783771323,0.05950322729368372,0.13480002305209773,8.880245649948822,41542.67717502558,37.323,127.0972
통합,4121061000,광명시,철산3동,철산역클래스티지경로당,"경기도 광명시 시청로 50 (철산동, 철산역 롯데캐슬&SKVIEW 클래스티지)",한파쉼터,1,35302.0,3908.0,0.15327743470624894,0.07240382981134214,0.12901535323777688,9.033265097236438,41142.005885363345,37.4794048,126.8666089
통합,2723071500,북구,관문동,관문동주민센터,대구광역시 북구 매천로18길 34 (매천동),한파쉼터,1,32670.0,3908.0,0.1748393021120294,0.08441995714722987,0.1477134986225895,8.359774820880245,40342.60133060388,35.9017163,128.5420987
통합,4150025300,이천시,부발읍,아미1리경로당,경기도 이천시 부발읍 아미리 550-2,한파쉼터,1,36853.0,3908.0,0.13977152470626544,0.05888258757767346,0.11550484356768785,9.43014329580348,40141.290967246685,37.2597939,127.4954876
통합,4128160000,고양시 덕양구,관산동,관산1경로당,경기도 고양시 덕양구 통일로770번길 41 (관산동),한파쉼터,1,33577.0,5719.0,0.2736396938380439,0.03407094141823272,0.20176906811210052,5.871131316663752,39775.74044413358,37.6897673,126.8649016
통합,4812352000,창원시 성산구,중앙동,대원포레나(아)경로당,"경상남도 창원시 성산구 창원천로 34 (대원동, 포레나 대원)",한파쉼터,1,38394.0,3908.0,0.11897692347762671,0.06977652758243476,0.10421680470906913,9.82446264073695,39310.62236438076,35.2333688,128.6488509
통합,2824572000,계양구,계양2동,병방동경로당,인천광역시 계양구 병방동 162-1,한파쉼터,1,30932.0,3908.0,0.21343592396223976,0.03426871847924479,0.15968576231734125,7.915046059365404,39095.57850562948,37.5467148,126.7447017
통합,4137054300,오산시,신장1동,청운경로당,경기도 오산시 수청로8번길 9-5,한파쉼터,1,35481.0,3908.0,0.1452044756348468,0.06572531777571095,0.12136072827710605,9.07906857727738,39094.469293756396,37.1716,127.059552
통합,4161056000,광주시,광남1동,장지7통경로당,경기도 광주시 담안길 20-6 (장지동),한파쉼터,1,31305.0,3908.0,0.19718894745248364,0.056891870308257465,0.15509982430921576,8.010491299897646,38894.13945752303,37.3885318,127.2427954
민방위,2635053000,해운대구,중1동,,,,,13584.0,730.0,0.189708480565371,0.06629122497055359,0.15268330388692578,18.60821917808219,38594.376986301366,35.1707,129.170594
통합,1168059000,강남구,삼성2동,한파응급대피소,서울특별시 강남구 학동로 426 (삼성동),한파쉼터,1,30219.0,2742.0,0.13931632416691486,0.057149475495549155,0.11466626956550516,11.020787746170678,38188.13161925602,37.5177595,127.0476151
통합,2635055400,해운대구,좌4동,좌4동행정복지센터,부산광역시 해운대구 좌동순환로 183,한파쉼터,1,21681.0,1910.0,0.18730685853973525,0.059268483926018176,0.1488953461556201,11.351308900523561,36644.29539267016,35.1778888,129.1762551
통합,4480025600,홍성군,홍북읍,극동스타클래스경로당,충청남도 홍성군 홍북읍 신대로 33,한파쉼터,1,35800.0,3908.0,0.10843575418994414,0.11111731843575419,0.10924022346368714,9.160696008188332,35825.649948822924,36.6536308,126.6735777
민방위,4128553000,고양시 일산동구,정발산동,,,,,21280.0,1973.0,0.2055451127819549,0.03609022556390978,0.15470864661654135,10.785605676634567,35508.37100861632,37.673953,126.775094
통합,4136025000,남양주시,와부읍,덕소5리경로당,경기도 남양주시 와부읍 덕소리 313-11,한파쉼터,1,29138.0,3908.0,0.21337749026202446,0.046553528836419174,0.16333030183434288,7.455987717502559,35483.927850775995,37.6001157,127.2184595
통합,4136025000,남양주시,와부읍,월문3리경로당,경기도 남양주시 와부읍 월문리 503-5,한파쉼터,1,29138.0,3908.0,0.21337749026202446,0.046553528836419174,0.16333030183434288,7.455987717502559,35483.927850775995,37.600319,127.241742
통합,4111157300,수원시 장안구,정자3동,화서역위너스파크(아)경로당,경기도 수원시 장안구 천천로21번길 33,한파쉼터,1,38584.0,3908.0,0.1071687746216048,0.05427120049761559,0.09129950238440804,9.87308085977482,34779.90194472876,37.2925016,126.9855112
통합,3171025300,울주군,언양읍,KB국민은행언양,울산광역시 울주군 언양읍 동문길 85,한파쉼터,1,29331.0,4131.0,0.20483447546963962,0.06293682452013229,0.16226518018478742,7.1002178649237475,33792.77690631808,35.564183,129.1251338
통합,1130557500,강북구,삼각산동,SK북한산시티(아)제2경로당,"서울특별시 강북구 솔샘로 174 (미아동, SK북한산시티아파트)",한파쉼터,1,30085.0,3908.0,0.17812863553265748,0.06624563736081103,0.14456373608110354,7.698311156601842,33481.49488229273,37.6189693,127.0137066
통합,4163025000,양주시,백석읍,백석게이트볼경로당,경기도 양주시 백석읍 중앙로223번길 46 ,한파쉼터,1,25538.0,3908.0,0.2704988644373091,0.03312710470671157,0.19928733651812983,6.534800409416581,33258.21320368475,37.7946488,126.9850604
통합,1147068000,양천구,신정7동,목동2차우성(1단지)경로당,"서울특별시 양천구 목동남로4길 6-46 (신정동, 목동2차우성아파트)",한파쉼터,1,27781.0,3908.0,0.21655088009790865,0.0544616824448364,0.16792412080198696,7.108751279426817,33163.035593654036,37.5065937,126.8648516
통합,4711325000,포항시 북구,흥해읍,초곡화산샬레경로당,경상북도 포항시 북구 흥해읍초곡지구로58번길 82,한파쉼터,1,29610.0,3908.0,0.17046605876393112,0.09130361364403917,0.14671732522796352,7.576765609007165,32915.74283520983,36.0975303,129.3308648
통합,4711325000,포항시 북구,흥해읍,초곡3리리슈빌경로당,경상북도 포항시 북구 흥해읍초곡지구로58번길 65-9,한파쉼터,1,29610.0,3908.0,0.17046605876393112,0.09130361364403917,0.14671732522796352,7.576765609007165,32915.74283520983,36.0957002,129.3329516
통합,4311168000,청주시 상당구,금천동,MG금천새마을금고,충청북도 청주시 상당구 수영로 230,한파쉼터,1,28956.0,3908.0,0.19260256941566514,0.05843348528802321,0.15235184417737258,7.409416581371546,32686.641248720574,36.6252264,127.504299
통합,2824564000,계양구,작전서운동,작전도서관,인천광역시 계양구 오조산로21번길 4 (작전동),한파쉼터,1,32199.0,3908.0,0.150004658529768,0.05708251809062393,0.12212801639802477,8.239252814738997,32400.037768679627,37.5329198,126.7378618
통합,1121577000,광진구,중곡4동,중곡4동경로당,서울특별시 광진구 긴고랑로39길 57,한파쉼터,1,26902.0,3908.0,0.23522414690357593,0.030666864917106535,0.17385696230763512,6.883828045035824,32196.35214943705,37.559388,127.093102
민방위,4715059500,김천시,대곡동,,,,,20416.0,2443.0,0.23682405956112854,0.06088362068965517,0.1840419278996865,8.356938190749078,31400.359557920587,36.120525,128.087547
통합,2820055100,남동구,간석4동,풍림아파트경로당,"인천광역시 남동구 석산로 35  (간석동, 간석마을 풍림아이원아파트)",한파쉼터,1,27693.0,3908.0,0.2102697432564186,0.042718376485032315,0.1600043332250027,7.086233367451382,31399.100051177076,37.462419,126.697255
민방위,4122025300,평택시,안중읍,,,,,21379.0,1710.0,0.14301417278637915,0.05542822395808972,0.11673838813789232,12.50233918128655,31202.713011695905,36.982531,126.926261
통합,4125056500,동두천시,불현동,조흥아파트경로당,경기도 동두천시 생연동 268-5,한파쉼터,1,25082.0,3908.0,0.24886372697552028,0.044653536400606014,0.187600669803046,6.418116683725691,30199.806243602863,37.9008306,127.0662865
통합,4611081000,목포시,부주동,모아엘가A경로당,"전라남도 목포시 남악2로22번길 58 , 모아엘가 (옥암동, 모아엘가)",한파쉼터,1,21677.0,1433.0,0.09978318032938137,0.07385708354477095,0.09200535129399824,15.127006280530356,30169.30132588974,34.8082067,126.4583299
통합,4121065000,광명시,소하2동,설월경로당,경기도 광명시 설월로 19,한파쉼터,1,25298.0,3908.0,0.2291485492924342,0.043284054075420984,0.17338920072733022,6.47338792221085,28394.868781985668,37.4403884,126.876772
통합,4127153200,안산시 상록구,사이동,현대2차아파트경로당,경기도 안산시 상록구 감골2로 12,한파쉼터,1,29893.0,3908.0,0.1531127688756565,0.04897467634563276,0.12187134111664936,7.649181166837257,27866.731908904807,37.29141,126.85447
통합,3111055500,중구,복산동,복산동행정복지센터,울산광역시 중구 북부순환도로 610 복산1동행정복지센터 (복산동),한파쉼터,1,21192.0,2380.0,0.15855039637599094,0.10593620234050585,0.14276613816534542,8.90420168067227,26939.662184873952,35.563029,129.327011
통합,4111369000,수원시 권선구,곡선동,권선삼성래미안(아)경로당,경기도 수원시 권선구 곡선로50번길 73,한파쉼터,1,34372.0,3908.0,0.10013964855114628,0.06127080181543117,0.08847899453043175,8.795291709314228,26748.24114636643,37.2354485,127.0286925
통합,1135061200,노원구,하계2동,하계5단지경로당,"서울특별시 노원구 섬밭로 201 (하계동, 시영아파트)",한파쉼터,1,19689.0,2000.0,0.17334552288079638,0.05505612270811113,0.1378587028289908,9.8445,26720.926349999998,37.633436,127.0655859
통합,4139059600,시흥시,배곧1동,배곧호반1차경로당,"경기도 시흥시 배곧3로 27-8 배곧호반1차 경로당 (배곧동, 시흥배곧신도시 호반베르디움센트럴파크)",한파쉼터,1,35195.0,3908.0,0.06785054695269215,0.1225742292939338,0.08426765165506464,9.005885363357216,26709.65481064483,37.374355,126.727047
통합,4471025000,금산군,금산읍,중도3리경로당,충청남도 금산군 금산읍 금산천길 140 ,한파쉼터,1,22329.0,3908.0,0.2780240942272381,0.04877065699314793,0.20924806305701105,5.713664278403275,26695.953607983618,36.1011557,127.4949286
통합,3111059000,중구,우정동,하나은행석유공사(출),울산광역시 중구 종가로 305,한파쉼터,1,17973.0,2380.0,0.24392143771212374,0.05029766872531019,0.18583430701607967,7.551680672268907,25222.613445378152,35.564697,129.3086321
통합,5213065000,군산시,조촌동,현대A경로당,전북특별자치도 군산시 경기장로 137 (조촌동),한파쉼터,1,26073.0,3908.0,0.1566371342001304,0.11164806504813408,0.1431404134545315,6.671699078812692,24899.448132036843,35.9734826,126.7452443
통합,2623068000,부산진구,당감2동,중앙경로당,부산광역시 부산진구 당감동 817-1,한파쉼터,1,11614.0,990.0,0.23153091096951955,0.06879628035130016,0.18271052178405373,11.731313131313131,24893.846464646464,35.15741,129.041921
통합,4121058000,광명시,광명7동,광명7동행정복지센터,경기도 광명시 광명동 788-2,한파쉼터,1,25526.0,3908.0,0.17907231842043406,0.07361121993261772,0.14743398887408915,6.531729785056295,24581.511873080857,37.4693702,126.8530691
통합,4687025000,영광군,영광읍,국제아파트경로당,전라남도 영광군 영광읍 옥당로 85-8 (국제아파트),한파쉼터,1,23121.0,3908.0,0.22036244107088793,0.08338739673889538,0.17926992777129017,5.91632548618219,24522.577507676557,35.2702149,126.5046608
통합,4831059000,거제시,상문동,덕산베스트타운3차아파트경로당,경상남도 거제시 상동1길 15-11 (상동동),한파쉼터,1,34549.0,3908.0,0.06778777967524385,0.10741266027960289,0.07967524385655156,8.840583418628455,24335.473976458547,34.8633194,128.6400241
통합,5011058000,제주시,용담2동,현대APT경로당,제주특별자치도 제주시 서해안로 660,한파쉼터,1,13603.0,1458.0,0.24950378592957437,0.051753289715503935,0.19017863706535323,9.329903978052126,24136.46159122085,33.5155376,126.507849
통합,4623033000,광양시,옥곡면,점터마을회관,전라남도 광양시 옥곡면 명주로 52-5 ,한파쉼터,1,4745.0,198.0,0.2792413066385669,0.04214963119072708,0.20811380400421495,23.964646464646464,23665.08838383838,34.9969065,127.6977137
통합,2771025000,달성군,화원읍,화원읍농협(동부지점),대구광역시 달성군 화원읍 화원로1길 1,한파쉼터,1,22986.0,3908.0,0.22632849716137732,0.04955082330933374,0.17329519500576424,5.881780962128966,23429.27073140322,35.8052105,128.5005972
통합,2771025000,달성군,화원읍,화원읍농협(명곡지점),대구광역시 달성군 화원읍 화암로 71 ,한파쉼터,1,22986.0,3908.0,0.22632849716137732,0.04955082330933374,0.17329519500576424,5.881780962128966,23429.27073140322,35.798,128.4963
통합,2626054500,동래구,명륜동,명륜동주민센터,부산광역시 동래구 명륜로207번길 26 (명륜동),한파쉼터,1,25823.0,3908.0,0.16051581923091818,0.08232970607597878,0.13705998528443636,6.607727737973388,23386.730783009214,35.2124566,129.0815771
통합,4113357000,성남시 중원구,상대원1동,궁전A경로당,"경기도 성남시 중원구 순환로 188 (상대원동, 궁전아파트)",한파쉼터,1,22941.0,3908.0,0.22858637374133647,0.04045159321738372,0.17214593958415064,5.870266120777892,23182.854964176047,37.4400144,127.1800962
통합,4119458000,부천시 소사구,역곡3동,장미경로당,경기도 부천시 소사구 안곡로197번길 7-4 ,한파쉼터,1,22120.0,3908.0,0.2417721518987342,0.05298372513562387,0.18513562386980106,5.660184237461618,23179.58648925281,37.4855964,126.8184444
통합,2920063500,광산구,운남동,더불어락노인복지관,광주광역시 광산구 목련로 156 (운남동),한파쉼터,1,28375.0,3908.0,0.13413215859030836,0.05959471365638767,0.11177092511013215,7.260747185261003,23027.459698055267,35.1714646,126.8159307
통합,4119460000,부천시 소사구,송내2동,청실경로당,경기도 부천시 소사구 경인로 120,한파쉼터,1,23893.0,3908.0,0.20353241535177666,0.04566190934583351,0.15617126354999372,6.113868986693961,22813.290736949846,37.483402,126.7687887
통합,4146125900,용인시 처인구,남사읍,남사읍행정복지센터,경기도 용인시 처인구 남사읍내기로 22 ,한파쉼터,1,23577.0,3908.0,0.1886160240912754,0.09373542011282182,0.16015184289773932,6.033009211873081,22780.039483111563,37.1149054,127.1499899
통합,4111759300,수원시 영통구,망포1동,자이1차(아)경로당,"경기도 수원시 영통구 태장로82번길 32  (망포동, 망포마을 동수원 엘지빌리지)",한파쉼터,1,31154.0,3908.0,0.09087115619182128,0.09286126982088977,0.09146819028054182,7.971852610030706,22716.5911975435,37.2367094,127.053079
통합,4313053500,충주시,교현.안림동,목벌2통경로당,충청북도 충주시 목벌안길 71 (목벌동),한파쉼터,1,21793.0,3908.0,0.2390217042169504,0.05212682971596384,0.18295324186665443,5.576509723643808,22234.101919140227,36.9577045,128.005743
민방위,3023061000,대덕구,법2동,,,,,7284.0,472.0,0.2619260072757224,0.0402223900061775,0.19541492209485892,15.432203389830509,21966.23368401214,36.373111,127.430161
통합,4128165000,고양시 덕양구,행신2동,무원경로당,경기도 고양시 덕양구 용현로 42 (행신동),한파쉼터,1,29573.0,5719.0,0.1818550705034998,0.05302133703039935,0.14320495046156967,5.171008917642944,21899.22276621787,37.6166742,126.836038
통합,4139054000,시흥시,은행동,은계브리즈힐아파트경로당,"경기도 시흥시 은계중앙로 118 (은행동, 은계브리즈힐)",한파쉼터,1,27172.0,3908.0,0.12463197409097601,0.09526350655086117,0.11582143382894156,6.952917093142272,21881.525383828044,37.438675,126.8028286
통합,4139054000,시흥시,은행동,은계도서관,경기도 시흥시 은행동 651-5,한파쉼터,1,27172.0,3908.0,0.12463197409097601,0.09526350655086117,0.11582143382894156,6.952917093142272,21881.525383828044,37.4358174,126.7979415
통합,2635055300,해운대구,좌3동,좌3동행정복지센터,부산광역시 해운대구 좌동순환로 65,한파쉼터,1,14893.0,1910.0,0.244611562479017,0.051299268112536094,0.18661787416907272,7.79738219895288,21671.264345549742,35.1722656,129.1666143
통합,2635055100,해운대구,좌1동,좌1동행정복지센터,부산광역시 해운대구 양운로 91 (좌동),한파쉼터,1,16937.0,1910.0,0.1837397413945799,0.04888705201629569,0.14328393458109462,8.867539267015706,21519.744293193715,35.1708901,129.174175
통합,2671025600,기장군,정관읍,두산위브더테라스남자경로당,부산광역시 기장군 정관읍 산단6로 33-8 (두산위브더테라스 101),한파쉼터,1,25906.0,3908.0,0.14031498494557246,0.0892071334825909,0.12498262950667799,6.6289662231320365,21463.26683725691,35.321437,129.194378
통합,2671025600,기장군,정관읍,성림아파트경로당,부산광역시 기장군 정관읍정관로 744-41,한파쉼터,1,25906.0,3908.0,0.14031498494557246,0.0892071334825909,0.12498262950667799,6.6289662231320365,21463.26683725691,35.3219706,129.1942449
통합,2671025600,기장군,정관읍,매곡마을경로당,부산광역시 기장군 정관읍 매곡길 25-1 ,한파쉼터,1,25906.0,3908.0,0.14031498494557246,0.0892071334825909,0.12498262950667799,6.6289662231320365,21463.26683725691,35.3176333,129.1743708
민방위,4611074500,목포시,용해동,,,,,15520.0,1644.0,0.18318298969072164,0.054961340206185566,0.1447164948453608,9.440389294403893,21203.114355231144,34.817464,126.395622
통합,3111065000,중구,성안동,우리은행울산우정타운지점,울산광역시 중구 종가로 395,한파쉼터,1,20013.0,2380.0,0.1579473342327487,0.05141657922350472,0.12598810772997548,8.408823529411764,21202.007647058814,35.5662248,129.3189598
통합,3017055500,서구,탄방동,탄방제일경로당,대전광역시 서구 남선로 66 (탄방동),한파쉼터,1,27827.0,3908.0,0.12973011823049557,0.05343730908829554,0.10684227548783555,7.120522006141249,21170.023976458546,36.3469832,127.3977885
통합,1123065000,동대문구,장안1동,동대문구구민체육센터,서울특별시 동대문구 장안벚꽃로 67 (장안동),한파쉼터,1,37198.0,10622.0,0.21065648690789826,0.048577880531211357,0.1620329049948922,3.501977028808134,21107.466145735267,37.5664574,127.0734928
통합,2635054000,해운대구,중2동,중2동행정복지센터,부산광역시 해운대구 좌동순환로433번길 34 (중동),한파쉼터,1,15153.0,1910.0,0.22160628258430673,0.06467366198112585,0.17452649640335247,7.933507853403142,20980.954869109948,35.1619616,129.1792685
통합,5175025000,영월군,영월읍,방절2리마을회관,강원특별자치도 영월군 영월읍 날골길 36 ,한파쉼터,1,19553.0,3908.0,0.282923336572393,0.047818749041067865,0.21239196031299545,5.003326509723644,20778.314662231325,37.1875679,128.4309348
통합,2723073500,북구,태전2동,태전2동주민자치센터,"대구광역시 북구 칠곡중앙대로52길 32 , 태전2동 주민센터 (태전동)",한파쉼터,1,22043.0,3908.0,0.22029669282765504,0.04291611849566756,0.16708252052805878,5.640481064483112,20773.891760491297,35.921492,128.5487627
통합,2623075000,부산진구,개금2동,명광교회,부산광역시 부산진구 엄광로12번길 62 (개금동),한파쉼터,1,9691.0,990.0,0.2939841089670829,0.03498091012279435,0.2162831493137963,9.78888888888889,20517.51111111111,35.1455185,129.0171558
통합,5280025000,부안군,부안읍,국민은행,전북특별자치도 부안군 부안읍 석정로 224,한파쉼터,1,19928.0,3908.0,0.2629466077880369,0.05881172219991971,0.20170614211160173,5.0992835209826,20497.080040941655,35.725711,126.737021
통합,5213070200,군산시,나운2동,현대2차경로당,전북특별자치도 군산시 나운로 29 (나운동),한파쉼터,1,20747.0,3908.0,0.24736106425025306,0.040246782667373596,0.1852267797753892,5.30885363357216,20401.39362845445,35.9685789,126.7027353
통합,5113033000,원주시,지정면,판대보건소,강원특별자치도 원주시 지정면 지정로 1228 ,한파쉼터,1,32772.0,5858.0,0.0959660685951422,0.14240815330159892,0.10989869400707922,5.594400819392284,20148.79399112325,37.3803521,127.791055
통합,4122063000,평택시,비전2동,무지개경로당,경기도 평택시 무지개공원1길 12 (비전동),한파쉼터,1,28024.0,4618.0,0.13134935502863565,0.08703099074024515,0.1180538457421185,6.0684278908618445,20076.428633502263,36.9917796,127.1083805
통합,4122063000,평택시,비전2동,매봉경로당,경기도 평택시 매봉산5길 35 (비전동),한파쉼터,1,28024.0,4618.0,0.13134935502863565,0.08703099074024515,0.1180538457421185,6.0684278908618445,20076.428633502263,36.99564,127.1031877
통합,2826053600,서구,청라1동,신한은행청라국제도시지점,인천광역시 서구 중봉대로 588 (청라동),한파쉼터,1,30459.0,3908.0,0.07991069962900949,0.09212383860271184,0.08357464132112019,7.794012282497441,19840.437666325484,37.5321162,126.650266
통합,4148051000,파주시,금촌1동,파주중앙새마을금고금촌지점,경기도 파주시 문화로 62 (금촌동),한파쉼터,1,21028.0,3908.0,0.23568575233022637,0.03138672246528438,0.17439604337074377,5.380757420675537,19732.313613101327,37.7598203,126.7763579
통합,4111758500,수원시 영통구,영통3동,풍림아이원3차(아)경로당,"경기도 수원시 영통구 봉영로1482번길 18 (영통동, 영통3차 풍림아이원아파트)",한파쉼터,1,31265.0,3908.0,0.0901647209339517,0.052230929154006074,0.07878458339996801,8.000255885363357,19706.23029682702,37.2445929,127.0662725
통합,4131053000,구리시,인창동,칸타빌경로당,"경기도 구리시 인창1로 39-9 (인창동, 인창칸타빌더헤리티지)",한파쉼터,1,23664.0,3908.0,0.16987829614604463,0.05979546991210277,0.13685344827586207,6.055271238485159,19609.99590583419,37.6066034,127.1308154
통합,4137053000,오산시,남촌동,궐동궁터경로당,경기도 오산시 대호로 54  (궐동),한파쉼터,1,28704.0,3908.0,0.09876672240802675,0.07835144927536232,0.09264214046822741,7.344933469805527,19531.647082906857,37.1561083,127.0562382
통합,4831056000,거제시,옥포2동,석천2차아파트경로당,"경상남도 거제시 성산로 51 (옥포동, 석천아트타운2차)",한파쉼터,1,23912.0,3908.0,0.16757276681164268,0.052818668450986955,0.13314653730344594,6.118730808597748,19480.815148413505,34.9008513,128.69587
민방위,2711067000,중구,남산4동,,,,,16180.0,2380.0,0.2100123609394314,0.08757725587144623,0.17328182941903583,6.798319327731092,19060.447899159662,35.860397,128.580747
통합,4817069500,진주시,초장동,초전대림경로당,"경상남도 진주시 말티고개로 113-1, 초전 대림아파트 상가동 (초전동)",한파쉼터,1,27549.0,3908.0,0.09673672365603107,0.09847907365058622,0.09725942865439761,7.049385875127943,18888.12451381781,35.19728,128.11423
통합,2723072500,북구,태전1동,태전1동주민센터,대구광역시 북구 태전로7길 10-24 (태전동),한파쉼터,1,21312.0,3908.0,0.21363551051051052,0.03720908408408408,0.16070758258258258,5.453428863868987,18677.99385875128,35.9240414,128.5431879
통합,2920062400,광산구,첨단1동,첨단금융센터,광주광역시 광산구 첨단중앙로 170,한파쉼터,1,27499.0,3908.0,0.10851303683770319,0.06356594785264919,0.09502891014218698,7.036591606960082,18388.021187308084,35.220533,126.8420022
통합,4413156000,천안시 동남구,일봉동,활림3차크로버아파트경로당,충청남도 천안시 동남구 다가12길 6,한파쉼터,1,23503.0,3908.0,0.16078798451261542,0.05488661021997192,0.12901757222482235,6.0140736949846465,18236.475665301943,36.80038,127.140365
통합,2917061500,북구,동림동,죽림경로당,광주광역시 북구 죽림마을길1번길 1 (동림동),한파쉼터,1,21930.0,3908.0,0.18116735066119471,0.06926584587323302,0.1475968992248062,5.611566018423746,18163.51688843398,35.1748563,126.8623817
통합,1126069000,중랑구,신내2동,중랑구청지하상황실,서울특별시 중랑구 봉화산로 179 (신내동),한파쉼터,1,19109.0,3908.0,0.25595269244858443,0.047569208226490134,0.19343764718195613,4.88971340839304,18074.33664278403,37.6066787,127.0926557
통합,4128757000,고양시 일산서구,대화동,새말경로당,경기도 고양시 일산서구 대화동 2008,한파쉼터,1,33782.0,8637.0,0.17376117459001836,0.04697768042152626,0.13572612633947073,3.9113117980780365,17933.755725367606,37.684268,126.758416
통합,1147056000,양천구,신월1동,월성경로당,서울특별시 양천구 곰달래로11길 24 (신월동),한파쉼터,1,18711.0,3908.0,0.2717118272673828,0.029715140826251936,0.19911282133504352,4.787871033776868,17837.6923234391,37.5319396,126.8358144
통합,4137056000,오산시,초평동,참사랑노인회(참사랑경로당),경기도 오산시 충신이상재길 8-16 (서동),한파쉼터,1,25534.0,3908.0,0.116119683559176,0.08377065872953708,0.10641497611028432,6.5337768679631525,17753.578505629477,37.1513724,127.0386431
민방위,4128752000,고양시 일산서구,일산2동,,,,,18519.0,3324.0,0.22787407527404288,0.04055294562341379,0.17167773637885417,5.57129963898917,17712.83294223827,37.687897,126.776492
통합,4122025900,평택시,청북읍,한산3리경로당,경기도 평택시 청북읍 한산길 244 ,한파쉼터,1,26315.0,4618.0,0.12718981569447083,0.09101273038191146,0.11633669010070301,5.698354265915981,17444.94174967518,37.0672061,126.9618246
통합,4119459000,부천시 소사구,송내1동,욱일3차경로당,경기도 부천시 소사구 송내대로30번길 34,한파쉼터,1,20036.0,3908.0,0.22095228588540627,0.049810341385506086,0.16960970253543622,5.126919140225179,17422.809314227226,37.4854495,126.7551577
통합,4812125000,창원시 의창구,동읍,죽동노인회,경상남도 창원시 의창구 동읍 봉강가술로237번길 8 ,한파쉼터,1,18370.0,3908.0,0.2713663581927055,0.030811105062602068,0.19919978225367446,4.700614124872057,17200.95726714432,35.352667,128.6806861
통합,1121584700,광진구,자양4동,한화꿈에그린아파트경로당,"서울특별시 광진구 뚝섬로24길 74 (자양동, 광진 한화꿈에그린아파트)",한파쉼터,1,20030.0,3908.0,0.2200698951572641,0.03504742885671493,0.16456315526709936,5.1253838280450355,16894.290174002046,37.5333845,127.0619461
통합,4113565500,성남시 분당구,삼평동,중원새마을금고동판교지점,경기도 성남시 분당구 대왕판교로606번길 58,한파쉼터,1,23616.0,3908.0,0.13122459349593496,0.08617039295392954,0.11770833333333333,6.042988741044012,16798.300102354147,37.3959,127.1132
통합,4679025000,화순군,화순읍,부영5차경로당,전라남도 화순군 화순읍 광덕로 204 ,한파쉼터,1,19496.0,3908.0,0.22212248666393106,0.05383155519080837,0.17163520722199424,4.988741044012283,16693.3252814739,35.0629632,126.9926865
통합,4679025000,화순군,화순읍,평리경로당,전라남도 화순군 화순읍 계소리 259-1,한파쉼터,1,19496.0,3908.0,0.22212248666393106,0.05383155519080837,0.17163520722199424,4.988741044012283,16693.3252814739,35.049359,126.954104
민방위,3114052000,남구,신정2동,,,,,25360.0,4793.0,0.14511041009463724,0.0751577287066246,0.12412460567823344,5.291049447110369,16655.16544961402,35.536975,129.312967
통합,4180025300,연천군,전곡읍,전곡역버스정류장스마트쉼터,경기도 연천군 전곡읍 전곡리 333-301,한파쉼터,1,18245.0,3908.0,0.2549739654699918,0.05497396546999178,0.19497396546999177,4.6686284544524055,16607.71200102354,38.0239537,127.0712606
통합,4111158000,수원시 장안구,영화동,NDMS한파쉼터,"경기도 수원시 장안구 수성로394번길 21 (영화동, 리베라빌)",한파쉼터,1,17768.0,3908.0,0.27639576767221974,0.0260018009905448,0.20127757766771723,4.546571136131013,16259.90235414534,37.2936939,127.0155866
통합,1120053500,성동구,왕십리도선동,코스모타워.서울신용보증재단성동지점(상왕십리역)스마트쉼터,서울특별시 성동구 왕십리로 357-1 (하왕십리동),한파쉼터,1,25704.0,5709.0,0.16981792717086835,0.07088390911920324,0.14013772175536882,4.502364687335786,16217.967840252233,37.5630218,127.0328414
통합,2920064000,광산구,하남동,장안경로당,광주광역시 광산구 장안길 51,한파쉼터,1,26875.0,3908.0,0.08997209302325582,0.08245581395348837,0.08771720930232559,6.876919140225179,16211.649181166838,35.2188157,126.8049677
통합,4128154000,고양시 덕양구,성사1동,성사8경로당,경기도 고양시 덕양구 호국로 916-11 (성사동),한파쉼터,1,23713.0,5719.0,0.21304769535697718,0.04706279256104247,0.16325222451819676,4.146354257737367,16051.366602552895,37.6652009,126.8467162
통합,4817067300,진주시,상대동,하대주공아파트경로당,경상남도 진주시 상대로143번길 11,한파쉼터,1,17796.0,3908.0,0.2679253764890987,0.032142054394245896,0.19719037986064283,4.5537359263050154,15979.970112589559,35.18525,128.1272
민방위,1135057000,노원구,월계2동,,,,,12470.0,2000.0,0.272585107662697,0.04755603672962028,0.20507638638277398,6.235,15944.78132563455,37.636489,127.052142
통합,1132069000,도봉구,방학1동,모텔세화(야간한파쉼터),서울특별시 도봉구 방학로6길 17 (방학동),한파쉼터,1,27101.0,8866.0,0.2572598797092358,0.03534924910519907,0.19068669052802475,3.0567335889916536,15796.587841191065,37.6637539,127.0368943
통합,1123056000,동대문구,전농1동,전일청소년독서실,서울특별시 동대문구 전농로37길 17 (전농동),한파쉼터,1,32590.0,10622.0,0.20202516109235963,0.0548634550475606,0.15787664927891992,3.068160421766146,15786.299002071175,37.5845526,127.0517103
통합,4613033000,여수시,화양면,화양보건지소,전라남도 여수시 화양면 화양로 1436-9 ,한파쉼터,1,5973.0,752.0,0.4664322785869747,0.019085886489201405,0.33222836095764274,7.94281914893617,15761.730319148937,34.709846,127.61785
통합,4159052000,화성시,진안동,참누리1단지경로당,경기도 화성시 기산동 467-1,한파쉼터,1,24814.0,3908.0,0.10149512372048038,0.09516805029418876,0.09959700169259289,6.349539406345957,15692.251688843398,37.2201452,127.0503026
통합,4159052000,화성시,진안동,푸르지오경로당,경기도 화성시 기산동 370,한파쉼터,1,24814.0,3908.0,0.10149512372048038,0.09516805029418876,0.09959700169259289,6.349539406345957,15692.251688843398,37.2275691,127.0444179
통합,1154551000,금천구,가산동,책이든거리작은도서관,서울특별시 금천구 가산동 677,한파쉼터,1,25122.0,3908.0,0.12777645091951279,0.020937823421702095,0.09572486267016958,6.428352098259979,15458.9011258956,37.4663345,126.8885386
통합,2820058100,남동구,만수4동,만수주공A11단지경로당,"인천광역시 남동구 만수서로105번길 40-18 (만수동, 만수주공11단지아파트)",한파쉼터,1,18413.0,3908.0,0.23624613045131157,0.04035192527018954,0.17747786889697498,4.711617195496418,15397.093833162744,37.4615338,126.7415557
통합,2717067500,서구,상중이동,IM뱅크이현공단영업부,대구광역시 서구 국채보상로 124 (중리동),한파쉼터,1,17434.0,3908.0,0.2667202019043249,0.0360789262360904,0.1975278192038545,4.461105424769703,15362.708751279422,35.8685509,128.5447679
통합,2614068000,서구,암남동,모지포경로당,부산광역시 서구 암남공원로 230-1,한파쉼터,1,17330.0,3908.0,0.2616849394114253,0.0552798615118292,0.19976341604154646,4.4344933469805525,15351.772517911975,35.063874,129.014636
통합,2620064000,영도구,청학2동,화신아파트경로당,부산광역시 영도구 태종로358번길 1 (청학동),한파쉼터,1,15856.0,3908.0,0.3226538849646821,0.037525227043390515,0.23711528758829462,4.0573183213920165,15254.299692937562,35.0940075,129.063617
통합,4111366200,수원시 권선구,금곡동,"LG빌리지3,4단지경로당",경기도 수원시 권선구 금곡로73번길 71,한파쉼터,1,22176.0,3908.0,0.14225158395526594,0.0664021104371942,0.11949674189984441,5.674513817809621,15037.23320877026,37.2747453,126.9344959
통합,4111366200,수원시 권선구,금곡동,LG빌리지2단지중앙경로당,경기도 수원시 권선구 금곡로 45,한파쉼터,1,22176.0,3908.0,0.14225158395526594,0.0664021104371942,0.11949674189984441,5.674513817809621,15037.23320877026,37.2730428,126.9365607
통합,1132051200,도봉구,창2동,장수경로당,서울특별시 도봉구 도봉로104길 101 (창동),한파쉼터,1,27557.0,8866.0,0.233044235584425,0.04042530028667852,0.17525855499510104,3.1081660275208662,15011.198646514775,37.6440198,127.0374763
통합,3111060000,중구,태화동,태화(본점)새마을금고,울산광역시 중구 유곡로 33,한파쉼터,1,15618.0,2380.0,0.17742348572160327,0.07286464336022538,0.1460558330131899,6.56218487394958,14968.999915966386,35.5564034,129.3058041
통합,3111060000,중구,태화동,태화동행정복지센터,울산광역시 중구 유곡로 45 태화동행정복지센터 (태화동),한파쉼터,1,15618.0,2380.0,0.17742348572160327,0.07286464336022538,0.1460558330131899,6.56218487394958,14968.999915966386,35.5565434,129.3044711
통합,4119651000,부천시 오정구,성곡동,성곡본동경로당,경기도 부천시 오정구 소사로 670-16 ,한파쉼터,1,18908.0,3908.0,0.215041252379945,0.04011529511317961,0.16256346519991538,4.83828045035824,14871.664534288639,37.5154916,126.8037459
통합,4119651000,부천시 오정구,성곡동,성곡제5경로당,경기도 부천시 오정구 삼작로416번길 40,한파쉼터,1,18908.0,3908.0,0.215041252379945,0.04011529511317961,0.16256346519991538,4.83828045035824,14871.664534288639,37.5183041,126.8078604
통합,1141064000,서대문구,홍제3동,은빛홍삼경로당,서울특별시 서대문구 세무서7길 21-4 (홍제동),한파쉼터,1,17330.0,3908.0,0.2469128678592037,0.052971725331794575,0.18873052510098093,4.4344933469805525,14503.89738996929,37.5916129,126.9456267
통합,4137052600,오산시,대원2동,우촌경로당,경기도 오산시 남부대로 451-19,한파쉼터,1,24437.0,3908.0,0.09452878831280435,0.09563367025412285,0.09486025289519989,6.253070624360286,14495.243014329579,37.134565,127.08447
통합,4139057000,시흥시,목감동,목감은빛사랑채,경기도 시흥시 조남동 171-72,한파쉼터,1,20408.0,3908.0,0.1522159884361908,0.09422544528015288,0.13481882548937943,5.222108495394063,14368.018400385032,37.385546,126.8584335
통합,4139057000,시흥시,목감동,목감어르신작은복지관,경기도 시흥시 목감우회로 23,한파쉼터,1,20408.0,3908.0,0.1522159884361908,0.09422544528015288,0.13481882548937943,5.222108495394063,14368.018400385032,37.3816612,126.858703
통합,4313058000,충주시,호암.직동,충주3차푸르지오아파트경로당,충청북도 충주시 용산동 2629,한파쉼터,1,22040.0,3908.0,0.12173321234119783,0.09342105263157895,0.11323956442831215,5.63971340839304,14075.596724667348,36.9581868,127.9431564
통합,4159025300,화성시,봉담읍,동문굿모닝힐(상7리),경기도 화성시 봉담읍 상봉길 35-10 (호수마을 동문굿모닝힐아파트),한파쉼터,1,21930.0,3908.0,0.12132349588231539,0.09607930760882452,0.11375023940026811,5.611566018423746,13998.291327674,37.2184706,126.9529009
통합,4159025300,화성시,봉담읍,화성봉담2LH2단지희망노인회(상8리),경기도 화성시 봉담읍 상리1길 37 (화성봉담2 LH2단지),한파쉼터,1,21930.0,3908.0,0.12132349588231539,0.09607930760882452,0.11375023940026811,5.611566018423746,13998.291327674,37.2218111,126.9438565
통합,4159025300,화성시,봉담읍,화성봉담2LH4단지경로당(수영11리),경기도 화성시 봉담읍 상리3길 111 (),한파쉼터,1,21930.0,3908.0,0.12132349588231539,0.09607930760882452,0.11375023940026811,5.611566018423746,13998.291327674,37.2290214,126.9512486
통합,4159025300,화성시,봉담읍,화성봉담2LH3단지노인회(수영10리),경기도 화성시 봉담읍 상리3길 135 (화성봉담2 LH3단지),한파쉼터,1,21930.0,3908.0,0.12132349588231539,0.09607930760882452,0.11375023940026811,5.611566018423746,13998.291327674,37.225348,126.9519889
통합,4159025300,화성시,봉담읍,하가등리,경기도 화성시 봉담읍 하가등안길 25-4 ,한파쉼터,1,21930.0,3908.0,0.12132349588231539,0.09607930760882452,0.11375023940026811,5.611566018423746,13998.291327674,37.1471885,126.9386476
통합,1120057000,성동구,행당2동,무학여고(행당신동아.행당푸르지오아파트)스마트쉼터,서울특별시 성동구 행당동 320-18,한파쉼터,1,22507.0,5709.0,0.19527258186342028,0.06615719553916559,0.15653796596614386,3.9423716938167805,13889.76395165528,37.5578891,127.033866
통합,3014074000,중구,산성동,샛뜸마을아파트경로당,"대전광역시 중구 대둔산로350번길 6 (사정동, 샛뜸마을아파트)",한파쉼터,1,12340.0,2380.0,0.2960006483244864,0.031848940394667534,0.21675513594554074,5.184873949579832,13868.2850332726,36.30041,127.3863003
통합,3014074000,중구,산성동,모아미래도아파트경로당,대전광역시 중구 유등천동로 218,한파쉼터,1,12340.0,2380.0,0.2960006483244864,0.031848940394667534,0.21675513594554074,5.184873949579832,13868.2850332726,36.3033799,127.382762
통합,2826059000,서구,가좌2동,신한은행가좌동지점,인천광역시 서구 원적로 78 (가좌동),한파쉼터,1,18169.0,3908.0,0.21283504870934009,0.04518685673399747,0.1625405911167373,4.649181166837257,13729.961821903787,37.4934598,126.6814467
통합,2917060100,북구,운암1동,운암동성당,광주광역시 북구 동운로201번길 63 (운암동),한파쉼터,1,18033.0,3908.0,0.2057339322353463,0.06687739144901014,0.16407696999944546,4.614380757420675,13653.029785056295,35.1748475,126.8751249
통합,2820053000,남동구,간석1동,이화경로당,인천광역시 남동구 이화로 8,한파쉼터,1,17559.0,3908.0,0.2291702260948801,0.036220741500085425,0.1712853807164417,4.493091095189355,13513.420777891502,37.462955,126.703349
통합,4817073000,진주시,판문동,평거햇살마을경로당,경상남도 진주시 평거동 361,한파쉼터,1,19853.0,3908.0,0.1547373192968317,0.08023976225255629,0.13238805218354907,5.080092118730809,13352.006115660184,35.1721771,128.0540442
통합,4790025300,예천군,호명읍,내동경로당,경상북도 예천군 호명읍 내신1길 183 ,한파쉼터,1,20834.0,3908.0,0.11274839205145436,0.13396371316117883,0.1191129883843717,5.3311156601842375,13229.696622313204,36.6175122,128.441893
통합,4812754500,창원시 마산회원구,석전동,근주여성경로당,경상남도 창원시 마산회원구 석전북23길 9-2 (석전동),한파쉼터,1,15515.0,3908.0,0.28295198195294874,0.05014502094747019,0.21310989365130517,3.9700614124872056,13126.611054247694,35.2304224,128.5689515
통합,4143052000,의왕시,부곡동,우성5차(아)경로당,"경기도 의왕시 부곡초등1길 16 (삼동, 우성5차아파트)",한파쉼터,1,14426.0,2606.0,0.2019547360759713,0.07427303919869684,0.16365022701278897,5.535686876438987,13068.750188377804,37.3157467,126.952579
통합,4143052000,의왕시,부곡동,우성6차(아)경로당,경기도 의왕시 부곡초등1길 10 (삼동),한파쉼터,1,14426.0,2606.0,0.2019547360759713,0.07427303919869684,0.16365022701278897,5.535686876438987,13068.750188377804,37.3156166,126.952174
통합,2623060000,부산진구,전포1동,황령경로당,부산광역시 부산진구 진남로291번길 39,한파쉼터,1,10174.0,990.0,0.15617475060199518,0.05105902009926778,0.12464003145117696,10.276767676767676,13031.842480969703,35.1498928,129.0722337
통합,2623060000,부산진구,전포1동,황령부녀경로당,부산광역시 부산진구 진남로291번길 39,한파쉼터,1,10174.0,990.0,0.15617475060199518,0.05105902009926778,0.12464003145117696,10.276767676767676,13031.842480969703,35.1498924,129.0722372
통합,4874025000,창녕군,창녕읍,창녕지역자활센터,경상남도 창녕군 창녕읍 조산서재골로 7 ,한파쉼터,1,15238.0,3908.0,0.2898018112613204,0.054075337970862315,0.21908386927418294,3.899181166837257,13017.026407369496,35.5379592,128.4857668
통합,4159026200,화성시,남양읍,남양6통경로당,경기도 화성시 남양읍 글판동길15번길 10 ,한파쉼터,1,20012.0,3908.0,0.14576011459599914,0.0820660592634542,0.12665189799623566,5.120777891504606,12978.907458394517,37.2044426,126.8008062
통합,4159026200,화성시,남양읍,장전동경로당,경기도 화성시 남양읍 장전길 58 ,한파쉼터,1,20012.0,3908.0,0.14576011459599914,0.0820660592634542,0.12665189799623566,5.120777891504606,12978.907458394517,37.2647208,126.8230042
통합,4159026200,화성시,남양읍,동녁회(안석2),경기도 화성시 남양읍 고향의봄길216번길 103 ,한파쉼터,1,20012.0,3908.0,0.14576011459599914,0.0820660592634542,0.12665189799623566,5.120777891504606,12978.907458394517,37.1771353,126.8187261
통합,1123061000,동대문구,답십리2동,동대문구체육관,서울특별시 동대문구 답십리로 210-3 (답십리동),한파쉼터,1,27417.0,10622.0,0.23430718167560272,0.05562242404347668,0.1807017543859649,2.581152325362455,12787.80296554321,37.5722968,127.0639799
통합,2723064500,북구,대현동,대현동행정복지센터,대구광역시 북구 대현동 532,한파쉼터,1,15719.0,3908.0,0.2681468286786691,0.033844392136904385,0.19785609771613968,4.022262026612077,12509.637128966222,35.8822222,128.605721
통합,1117055500,용산구,청파동,청파동주민센터,서울특별시 용산구 청파로49길 6 (청파동2가),한파쉼터,1,18588.0,3908.0,0.18979987088444158,0.02248762642565096,0.1396061975468044,4.75639713408393,12342.850562947799,37.545479,126.9698846
통합,4671025000,담양군,담양읍,회룡경로당,전라남도 담양군 담양읍 회룡길 100,한파쉼터,1,14951.0,3908.0,0.28011504247207547,0.06367467059059595,0.2151829309076316,3.825742067553736,12308.177379733881,35.3280183,126.9411014
통합,4128754500,고양시 일산서구,탄현1동,탄현5단지경로당,경기도 고양시 일산서구 현중로 71,한파쉼터,1,29194.0,8637.0,0.1532849215592245,0.05696375967664589,0.12438857299445091,3.3801088340859096,12274.527220099571,37.6961374,126.7661857
통합,2771038000,달성군,구지면,한정보건진료소,대구광역시 달성군 유가읍 비슬로34길 27 ,한파쉼터,1,18938.0,3908.0,0.13523075298341958,0.12371950575562361,0.13177737881508078,4.845957011258956,12093.57031729785,35.6553021,128.4515128
통합,2717065000,서구,평리4동,IM뱅크신평지점,대구광역시 서구 국채보상로 286 (평리동),한파쉼터,1,15549.0,3908.0,0.26246060839925395,0.03910219306707827,0.19545308379960125,3.978761514841351,12091.854119754349,35.8714574,128.5620962
민방위,1132051400,도봉구,창4동,,,,,26108.0,8866.0,0.2036540523977325,0.04856748889229355,0.1571280833461008,2.9447326866681705,12080.176900518834,37.660772,127.049717
민방위,4128157700,고양시 덕양구,삼송2동,,,,,28216.0,9967.0,0.1854975900198469,0.07006662886305642,0.15086830167280976,2.8309421089595665,12051.03746362998,37.651439,126.864947
통합,1174061000,강동구,천호2동,천호2경로당,"서울특별시 강동구 구천면로13길 21 , 천호경로당 (천호동)",한파쉼터,1,17419.0,3908.0,0.20377174349847868,0.041592513921579886,0.15511797462540902,4.457267144319345,12043.535823950868,37.5429708,127.1225191
통합,1174061000,강동구,천호2동,천호2동주민센터,서울특별시 강동구 천호동 422-12,한파쉼터,1,17419.0,3908.0,0.20377174349847868,0.041592513921579886,0.15511797462540902,4.457267144319345,12043.535823950868,37.5424981,127.1283817
통합,1171054000,송파구,마천1동,송파보훈경로당,서울특별시 송파구 성내천로 306,한파쉼터,1,15247.0,3908.0,0.2736931855446973,0.03443300321374697,0.20191513084541218,3.901484135107472,12011.10905834186,37.4936874,127.1554434
통합,4111157200,수원시 장안구,정자2동,화서역파크뷰(아)경로당,경기도 수원시 장안구 대평로51번길 56,한파쉼터,1,19132.0,3908.0,0.15270626976452448,0.07022449886313148,0.12796173849410658,4.895598771750256,11985.228577786704,37.2922148,126.9907248
통합,4111157200,수원시 장안구,정자2동,우방센트럴파크(아)경로당,"경기도 수원시 장안구 수성로245번길 21 (정자동, 화서역 우방 센트럴파크)",한파쉼터,1,19132.0,3908.0,0.15270626976452448,0.07022449886313148,0.12796173849410658,4.895598771750256,11985.228577786704,37.2910489,126.9969213
통합,2820065500,남동구,서창2동,서창LH6단지경로당,인천광역시 남동구 서창남순환로 190-100,한파쉼터,1,18800.0,3908.0,0.1493311348102444,0.09286987048216802,0.1323927555118215,4.81064483111566,11973.617069625943,37.4238615,126.7420491
통합,2820065500,남동구,서창2동,서창LH1단지경로당,인천광역시 남동구 서창남순환로 124-14,한파쉼터,1,18800.0,3908.0,0.1493311348102444,0.09286987048216802,0.1323927555118215,4.81064483111566,11973.617069625943,37.4306154,126.7422067
통합,4613062500,여수시,광림동,한재경로당,전라남도 여수시 한재로 135,한파쉼터,1,5773.0,752.0,0.3698250476355448,0.03221895028581327,0.26854321843062534,7.67686170212766,11901.438696808513,34.7436865,127.7227217
통합,4128751000,고양시 일산서구,일산1동,동문1단지경로당,경기도 고양시 일산서구 산현로 28 (일산동),한파쉼터,1,24926.0,8637.0,0.2104629703923614,0.04685870175720132,0.16138168980181336,2.8859557716799813,11609.045687159893,37.6895715,126.7657075
통합,4182032500,가평군,청평면,청평면행정복지센터,경기도 가평군 청평면 은고개로 19 ,한파쉼터,1,13308.0,3908.0,0.3521941689209498,0.029155395250976854,0.2552825368199579,3.40532241555783,11568.901842374615,37.7404003,127.4241731
통합,4423052000,논산시,부창동,등화1통경로당,충청남도 논산시 계백로 752-1,한파쉼터,1,15599.0,3908.0,0.23802807872299506,0.05699083274568883,0.18371690492980317,3.9915557830092117,11439.000562947798,36.1858104,127.0725264
통합,4421051000,서산시,부춘동,읍내22통경로당,충청남도 서산시 양유정1로 18 (읍내동),한파쉼터,1,17487.0,3908.0,0.18385086063933206,0.053868588094012695,0.14485617887573626,4.474667349027635,11334.779861821902,36.7813589,126.4490878
통합,3017053500,서구,정림동,우성(아)경로당,"대전광역시 서구 정림서로 162-15 (정림동, 우성아파트2차)",한파쉼터,1,14661.0,3908.0,0.2742650569538231,0.04242548257281222,0.2047131846395198,3.751535312180143,11259.482932446263,36.3031985,127.3647997
통합,4136052000,남양주시,평내동,장내부락경로당,경기도 남양주시 평내동 441-68,한파쉼터,1,18676.0,3908.0,0.15203598104569915,0.06551013305490858,0.12607822664846197,4.778915046059366,11252.610000388833,37.6463284,127.2317943
통합,4136052000,남양주시,평내동,평내36통(대명루첸A),경기도 남양주시 평내동 662,한파쉼터,1,18676.0,3908.0,0.15203598104569915,0.06551013305490858,0.12607822664846197,4.778915046059366,11252.610000388833,37.6515442,127.2363353
통합,4128164000,고양시 덕양구,행신1동,샘터2단지공임경로당,경기도 고양시 덕양구 충장로 118-30 (행신동),한파쉼터,1,20079.0,5719.0,0.20633497684147617,0.04621744110762488,0.15829971612132077,3.5109284840006993,11159.486186396221,37.620276,126.83592
통합,4163034000,양주시,장흥면,천생연분마을경로당,경기도 양주시 장흥면 일영로 556-111 ,한파쉼터,1,13162.0,3908.0,0.34166540039507676,0.041179152104543384,0.2515195259079167,3.3679631525076767,11149.642016376662,37.6915533,126.9299221
통합,3611055500,,소담동,새샘마을1단지아파트경로당,"세종특별자치시 남세종로 357 경로당 (소담동, 새샘마을1단지)",한파쉼터,1,21545.0,3908.0,0.07969366442330007,0.12466929682060802,0.09318635414249246,5.513050153531218,11068.550793244625,36.4801364,127.3036265
통합,2820058000,남동구,만수3동,만수주공A5단지경로당,인천광역시 남동구 만수동 산 6-2,한파쉼터,1,15847.0,3908.0,0.21164889253486463,0.0491575692560106,0.16290149555120842,4.055015353121801,10468.022134083929,37.464749,126.726685
통합,3014068000,중구,태평1동,태평1동행정복지센터,"대전광역시 중구 동서대로 1234 , 태평1동주민센터 (태평동)",한파쉼터,1,12108.0,2380.0,0.21704658077304262,0.05508754542451272,0.16845887016848365,5.087394957983193,10376.759495798318,36.3261314,127.3970872
민방위,4128156000,고양시 덕양구,효자동,,,,,6576.0,519.0,0.11592274351760322,0.14432362557980383,0.12444300813626338,12.670520231213873,10368.758321022642,37.649683,126.911347
통합,4119452000,부천시 소사구,심곡본동,부천축산농협남부지점,경기도 부천시 소사구 성주로 270 (심곡본동),한파쉼터,1,14198.0,3908.0,0.2746161431187491,0.026271305817720806,0.2001126919284406,3.6330603889457525,10322.25117707267,37.4824527,126.7822802
통합,4420060000,아산시,온양4동,배미1통경로당,충청남도 아산시 배미로85번길 16 (배미동),한파쉼터,1,15734.0,3908.0,0.21266048048811492,0.0423922715139189,0.16158001779585612,4.026100307062436,10235.554810644833,36.7954903,126.9728136
통합,4150051000,이천시,창전동,"창전11통경로당(현대1,2차아파트)",경기도 이천시 창전동 495-1,한파쉼터,1,15393.0,3908.0,0.22614175274475412,0.03443123497693757,0.16862859741440914,3.9388433981576254,10224.055808597748,37.28323,127.45471
통합,4423025300,논산시,연무읍,황화2리월성경로당,충청남도 논산시 연무읍 수철3길 18-1,한파쉼터,1,12363.0,3908.0,0.34870177141470515,0.04966432095769635,0.2589905362776025,3.163510747185261,10129.245061412485,36.092078,127.104498
통합,3014057500,중구,대흥동,현대1차경로당,대전광역시 중구 대흥동 22-7,한파쉼터,1,12390.0,2380.0,0.20532687651331719,0.04075867635189669,0.15595641646489103,5.205882352941177,10059.326470588236,36.3244549,127.43208
통합,5211366500,전주시 덕진구,여의동,우신경로당,"전북특별자치도 전주시 덕진구 편운로 54-68 (여의동2가, 우신아파트)",한파쉼터,1,15542.0,3908.0,0.205250289538026,0.0615750868614078,0.16214772873504052,3.9769703172978508,10022.362896622313,35.8724102,127.0820615
통합,4119261000,부천시 원미구,약대동,NH농협은행부천신흥지점,경기도 부천시 원미구 도약로 225 (약대동),한파쉼터,1,16993.0,3908.0,0.16389101394691932,0.06726299064320602,0.13490260695580533,4.348259979529171,9967.951177072673,37.5106471,126.7746413
민방위,5113025000,원주시,문막읍,,,,,17101.0,5858.0,0.2578211800479504,0.04268756213086954,0.19328109467282611,2.919255718675316,9649.01592693752,37.321861,127.832247
민방위,2644051000,강서구,대저1동,,,,,5529.0,997.0,0.44112859468258275,0.018990775908844276,0.31448724905046116,5.545636910732196,9642.753460381142,35.2173,128.95925
민방위,2650074000,수영구,망미1동,,,,,12654.0,3944.0,0.3206100837679785,0.04350403034613561,0.23747826774142564,3.2084178498985803,9641.456059837728,35.171567,129.108192
통합,4415059000,공주시,월송동,월송동경로당,충청남도 공주시 월송동현로 109 (월송동),한파쉼터,1,16542.0,3908.0,0.15862652641760366,0.08826018619272155,0.13751662435013903,4.232855680655066,9628.900102354144,36.467608,127.156341
통합,5214065600,익산시,신동,서영마을경로당,전북특별자치도 익산시 인북로 435 (신동),한파쉼터,1,14391.0,3908.0,0.24299909665763325,0.02626641651031895,0.17797929261343895,3.682446264073695,9431.849616171954,35.9667489,126.9642529
민방위,1159051000,동작구,노량진1동,,,,,32902.0,17738.0,0.20080846149170264,0.04264178469393958,0.15335845845237372,1.8548878114781824,9359.392919156613,37.509753,126.943239
통합,3017056000,서구,괴정동,하늘경로당,대전광역시 서구 계룡로576번길 21-6,한파쉼터,1,18013.0,3908.0,0.14306334314106478,0.034419585854660525,0.1104702159551435,4.609263050153531,9171.972543500511,36.341039,127.3869277
민방위,2635053000,해운대구,중1동,,,,,13584.0,3089.0,0.189708480565371,0.06629122497055359,0.15268330388692578,4.397539656846876,9120.717125283261,35.1639,129.1621
민방위,1135062400,노원구,중계4동,,,,,18754.0,7000.0,0.24000213287831929,0.04148448331022715,0.18044683800789163,2.6791428571428573,9066.487342857143,37.659511,127.076078
통합,2711058500,중구,성내3동,성내3동행정복지센터,대구광역시 중구 달성동 358,한파쉼터,1,13443.0,2380.0,0.10429219668228817,0.15108234769024773,0.11832924198467604,5.648319327731093,8984.78155462185,35.8749162,128.5818623
통합,1154564000,금천구,독산4동,책달샘숲속작은도서관,서울특별시 금천구 독산동 373,한파쉼터,1,13923.0,3908.0,0.2458521870286576,0.02887308769661711,0.18075845722904543,3.5626919140225177,8966.226740020467,37.4695959,126.9077593
통합,4128560000,고양시 일산동구,고봉동,마동경로당,경기도 고양시 일산동구 마골1길 88 (성석동),한파쉼터,1,7016.0,1046.0,0.253693762173975,0.04194973632951684,0.19017055442063752,6.707456978967495,8949.334660098846,37.7084337,126.805282
통합,4128560000,고양시 일산동구,고봉동,설문1경로당,경기도 고양시 일산동구 문원길 172 (설문동),한파쉼터,1,7016.0,1046.0,0.253693762173975,0.04194973632951684,0.19017055442063752,6.707456978967495,8949.334660098846,37.7219765,126.8163711
통합,4128560000,고양시 일산동구,고봉동,은곡경로당,경기도 고양시 일산동구 은마길 224-7 (설문동),한파쉼터,1,7016.0,1046.0,0.253693762173975,0.04194973632951684,0.19017055442063752,6.707456978967495,8949.334660098846,37.7259262,126.8025819
통합,4311370000,청주시 흥덕구,운천.신봉동,운신새마을금고,충청북도 청주시 흥덕구 사운로 247 (운천동),한파쉼터,1,13701.0,3908.0,0.24691628348295744,0.03539887599445296,0.1834610612364061,3.505885363357216,8812.393449334699,36.6499988,127.4743041
통합,4137051000,오산시,중앙동,우신경로당,경기도 오산시 경기대로281번길 25 (오산동),한파쉼터,1,16584.0,3908.0,0.146134828750603,0.07260009647853352,0.12407440906898215,4.24360286591607,8731.8494370522,37.1515883,127.0728345
통합,4137051000,오산시,중앙동,새마을경로당,경기도 오산시 동부대로568번길 22-27 (오산동),한파쉼터,1,16584.0,3908.0,0.146134828750603,0.07260009647853352,0.12407440906898215,4.24360286591607,8731.8494370522,37.152209,127.082605
통합,4420025300,아산시,배방읍,배방3차한성필하우스경로당,충청남도 아산시 배방읍 모산로 51 (배방3차한성필하우스아파트),한파쉼터,1,18733.0,3908.0,0.09811667236077895,0.09218056030064913,0.09633583874273999,4.793500511770727,8650.635120740386,36.7742042,127.047894
통합,4420025300,아산시,배방읍,배방더샵센트로아파트경로당,충청남도 아산시 배방읍 북수리 1952,한파쉼터,1,18733.0,3908.0,0.09811667236077895,0.09218056030064913,0.09633583874273999,4.793500511770727,8650.635120740386,36.7753963,127.078593
통합,4420025300,아산시,배방읍,배방북수3리경로당,충청남도 아산시 배방읍 북수북길 25 ,한파쉼터,1,18733.0,3908.0,0.09811667236077895,0.09218056030064913,0.09633583874273999,4.793500511770727,8650.635120740386,36.7763226,127.0693651
통합,4420025300,아산시,배방읍,배방아산탕정7단지경로당,충청남도 아산시 배방읍 세교길 13 (아산탕정 LH7단지),한파쉼터,1,18733.0,3908.0,0.09811667236077895,0.09218056030064913,0.09633583874273999,4.793500511770727,8650.635120740386,36.779515,127.0894146
통합,4420025300,아산시,배방읍,배방2차푸르지오아파트경로당,충청남도 아산시 배방읍 배방로 58-38 (배방2차푸르지오아파트),한파쉼터,1,18733.0,3908.0,0.09811667236077895,0.09218056030064913,0.09633583874273999,4.793500511770727,8650.635120740386,36.7719139,127.0491546
통합,4129051500,과천시,원문동,3단지경로당,경기도 과천시 별양로 12,한파쉼터,1,16190.0,3908.0,0.1365040148239654,0.10691785052501544,0.1276281655342804,4.142784032753326,8560.234646878196,37.4196165,126.9929513
통합,4119264000,부천시 원미구,중2동,그린타운삼성우성아파트경로당,경기도 부천시 원미구 조마루로 246,한파쉼터,1,14670.0,3908.0,0.19478527607361965,0.05766871165644172,0.15365030674846625,3.753838280450358,8461.339176049129,37.4976397,126.7688262
통합,4119264000,부천시 원미구,중2동,복사골1차경로당(복사골건영),경기도 부천시 원미구 중동로 162,한파쉼터,1,14670.0,3908.0,0.19478527607361965,0.05766871165644172,0.15365030674846625,3.753838280450358,8461.339176049129,37.4947115,126.7680752
통합,4128162100,고양시 덕양구,화정1동,화정꽃물경로당,경기도 고양시 덕양구 화정동 867,한파쉼터,1,17518.0,5719.0,0.20618792099554745,0.034164859002169194,0.15458100239753395,3.0631229235880397,8294.783720930232,37.641219,126.830625
통합,4128162100,고양시 덕양구,화정1동,화정동(단독)경로당,경기도 고양시 덕양구 화정동 872,한파쉼터,1,17518.0,5719.0,0.20618792099554745,0.034164859002169194,0.15458100239753395,3.0631229235880397,8294.783720930232,37.639494,126.837505
통합,4136026500,남양주시,퇴계원읍,퇴계원5리경로당,경기도 남양주시 퇴계원읍 퇴계원리 329-112,한파쉼터,1,13274.0,3908.0,0.24585656169956305,0.037968961880367635,0.1834902817538044,3.3966223132036846,8272.983137154553,37.6467022,127.1389899
통합,4136026500,남양주시,퇴계원읍,퇴계원22리경로당(일신),경기도 남양주시 퇴계원읍 퇴계원리 60-3,한파쉼터,1,13274.0,3908.0,0.24585656169956305,0.037968961880367635,0.1834902817538044,3.3966223132036846,8272.983137154553,37.6568989,127.1460431
민방위,4128156000,고양시 덕양구,효자동,,,,,6576.0,661.0,0.11592274351760322,0.14432362557980383,0.12444300813626338,9.948562783661119,8141.279226340016,37.649733,126.909442
통합,2826054300,서구,가정2동,신한은행루원시티지점,인천광역시 서구 봉오대로 255 (가정동),한파쉼터,1,17042.0,3908.0,0.10280483511324962,0.11759183194460744,0.10724093416265695,4.360798362333674,7969.795087001023,37.5250944,126.6780522
통합,4874025300,창녕군,남지읍,창녕군새누리노인종합센터,경상남도 창녕군 남지읍 덕동길 55 ,한파쉼터,1,11342.0,3908.0,0.32269441015693884,0.050432022570975135,0.2410156938811497,2.9022517911975436,7933.595496417605,35.3961959,128.4608878
통합,1147060000,양천구,신월5동,방아다리문학도서관,서울특별시 양천구 화곡로4길 10 (신월동),한파쉼터,1,13687.0,3908.0,0.21619054577336158,0.04354496967925769,0.16439687294513042,3.502302968270215,7880.53190890481,37.5385799,126.827167
통합,3017054000,서구,변동,갓골경로당,대전광역시 서구 중반4길 23 (변동),한파쉼터,1,12372.0,3908.0,0.2658422243776269,0.04154542515357258,0.19855318461041058,3.1658137154554757,7776.821392016374,36.3274149,127.3827199
통합,4812131000,창원시 의창구,북면,무동휴먼빌3단지아파트경로당,경상남도 창원시 의창구 북면 무동로226번길 19 (창원무동지구 휴먼빌아파트 3단지),한파쉼터,1,14806.0,3908.0,0.15178531226079517,0.10741140978882435,0.13847314151920392,3.7886386898669397,7767.593329921528,35.31727,128.5835177
통합,4812131000,창원시 의창구,북면,무동코아루파크아파트경로당,경상남도 창원시 의창구 북면 무동로 213 (창원 무동 코아루아파트),한파쉼터,1,14806.0,3908.0,0.15178531226079517,0.10741140978882435,0.13847314151920392,3.7886386898669397,7767.593329921528,35.3156855,128.5866344
통합,4812131000,창원시 의창구,북면,청우아파트경로당,경상남도 창원시 의창구 북면 천주로1083번길 10-1 (청우아파트),한파쉼터,1,14806.0,3908.0,0.15178531226079517,0.10741140978882435,0.13847314151920392,3.7886386898669397,7767.593329921528,35.3478628,128.6068958
민방위,3171025900,울주군,범서읍,,,,,11134.0,1837.0,0.13762236924827112,0.06252432416250038,0.11509295572253989,6.060968971148612,7766.79819543295,35.561319,129.223928
통합,3611025000,,조치원읍,침산1리경로당(여),세종특별자치시 조치원읍 침산2길 8-7 ,한파쉼터,1,13623.0,3908.0,0.21300283840657727,0.04622198296956054,0.16296858177547224,3.485926305015353,7739.1781577097845,36.6000942,127.2939196
통합,3611025000,,조치원읍,서창2리경로당(여),세종특별자치시  조치원읍 돌마루길 17,한파쉼터,1,13623.0,3908.0,0.21300283840657727,0.04622198296956054,0.16296858177547224,3.485926305015353,7739.1781577097845,36.6055901,127.2911609
통합,3611025000,,조치원읍,서창2리경로당(남),세종특별자치시  조치원읍 돌마루길 17,한파쉼터,1,13623.0,3908.0,0.21300283840657727,0.04622198296956054,0.16296858177547224,3.485926305015353,7739.1781577097845,36.6055901,127.2911609
민방위,3014063000,중구,대사동,,,,,5128.0,757.0,0.30674726989079565,0.022425897035881437,0.22145085803432135,6.774108322324967,7692.6774108322315,36.319392,127.415803
통합,4825034000,김해시,한림면,망천2구경로당,경상남도 김해시 한림면 김해대로1499번길 14-1 ,한파쉼터,1,6456.0,1686.0,0.4368029739776952,0.013011152416356878,0.3096654275092937,3.829181494661922,7655.299644128115,35.2781894,128.8371361
통합,5180025000,양구군,양구읍,황토펜션,강원특별자치도 양구군 양구읍 파로호로 537-46 ,한파쉼터,1,13162.0,3908.0,0.21091019601884212,0.08175049384592008,0.17216228536696548,3.3679631525076767,7631.804503582394,38.1327591,127.9496205
통합,2635059000,해운대구,반여3동,새마을경로당,부산광역시 해운대구 재반로242번길 13-18 (반여동),한파쉼터,1,7253.0,1910.0,0.3839790431545567,0.014614642217013649,0.2731697228732938,3.7973821989528798,7523.7533507853395,35.1989607,129.1322628
통합,4822034000,통영시,광도면,한선파라타운경로당,경상남도 통영시 광도면죽림1로 41-14 경로당 (한선파라타운),한파쉼터,1,15723.0,3908.0,0.13715575907905617,0.07603510780385422,0.11881956369649557,4.023285568065507,7516.302098259979,34.877838,128.41843
통합,4822034000,통영시,광도면,한선파라빌리지경로당,"경상남도 통영시 광도면죽림1로 41-55 201동, 경로당 (한선파라빌리지)",한파쉼터,1,15723.0,3908.0,0.13715575907905617,0.07603510780385422,0.11881956369649557,4.023285568065507,7516.302098259979,34.879471,128.417252
통합,3017063000,서구,둔산1동,목련(아)경로당,"대전광역시 서구 둔산남로 127 노인정 (둔산동, 목련아파트)",한파쉼터,1,16197.0,3908.0,0.12557881089090572,0.0759399888868309,0.11068716428968327,4.144575230296827,7430.394472876151,36.3504,127.3916
통합,4311451000,청주시 청원구,우암동,우암새마을금고,"충청북도 청주시 청원구 향군로 30 , 우암새마을금고 (우암동)",한파쉼터,1,12102.0,3908.0,0.2677243430837878,0.029086101470831266,0.19613287059990084,3.0967246673490276,7350.385670419651,36.6487733,127.4872885
통합,2915570500,남구,진월동,남구경로당,광주광역시 남구 화산로 35 (진월동),한파쉼터,1,27429.0,15806.0,0.19606985307521238,0.05118670020780925,0.15260490721499143,1.7353536631658864,7263.843363279768,35.1124533,126.9008499
통합,4129053000,과천시,별양동,5단지경로당,경기도 과천시 별양로 111,한파쉼터,1,14025.0,3908.0,0.16798573975044565,0.08270944741532976,0.14240285204991088,3.588792221084954,7167.5358239508705,37.4288868,126.9957384
통합,4157025000,김포시,통진읍,통진읍행복복지센터,경기도 김포시 통진읍 김포대로2250번길 24-11 ,한파쉼터,1,34841.0,30273.0,0.23116443270859047,0.055451910105909705,0.1784506759277862,1.1508935354936742,7155.56546757837,37.6917206,126.5973204
민방위,4122025300,평택시,안중읍,,,,,21379.0,7526.0,0.14301417278637915,0.05542822395808972,0.11673838813789232,2.8406856231730004,7089.641144034016,36.980964,126.921428
민방위,4128156000,고양시 덕양구,효자동,,,,,6576.0,764.0,0.11592274351760322,0.14432362557980383,0.12444300813626338,8.607329842931938,7043.698388233968,37.652978,126.904064
통합,3017059600,서구,관저1동,관저1동행정복지센터,대전광역시 서구 관저북로 24,한파쉼터,1,14532.0,3908.0,0.16329479768786126,0.05326176713459951,0.13028488852188272,3.7185261003070624,7040.28546571136,36.303815,127.337232
통합,4137055000,오산시,세마동,서랑동경로당,경기도 오산시 서랑로105번길 33 (서랑동),한파쉼터,1,15904.0,3908.0,0.11846448894897349,0.0837237086175999,0.1080422548495614,4.0696008188331625,6992.811451384482,37.1743848,127.0063613
통합,4137055000,오산시,세마동,꿈두레마을경로당,경기도 오산시 세마역로41번길 6-3 (세교동),한파쉼터,1,15904.0,3908.0,0.11846448894897349,0.0837237086175999,0.1080422548495614,4.0696008188331625,6992.811451384482,37.1841255,127.0445721
통합,3114059500,남구,무거동,무거현대@경로당,"울산광역시 남구 신복로71번길 12  (무거동, 무거현대아파트)",한파쉼터,1,30853.0,15806.0,0.14468609211421904,0.04301040417463456,0.11418338573234368,1.9519802606605086,6876.631260280905,35.5480757,129.2547481
통합,1174062000,강동구,천호3동,천호3동주민센터,서울특별시 강동구 천호동 555,한파쉼터,1,13109.0,3908.0,0.20695705240674345,0.036883057441452434,0.1559348539171561,3.354401228249744,6856.8992707267125,37.5397929,127.1297801
통합,1174062000,강동구,천호3동,천호3동(여)경로당,서울특별시 강동구 천호동 555,한파쉼터,1,13109.0,3908.0,0.20695705240674345,0.036883057441452434,0.1559348539171561,3.354401228249744,6856.8992707267125,37.5397844,127.1298122
통합,1132067000,도봉구,쌍문2동,삼익A경로당,"서울특별시 도봉구 해등로 195 (쌍문동, 삼익세라믹아파트)",한파쉼터,1,17485.0,8866.0,0.26445524735487563,0.038661710037174724,0.19671718615956535,1.9721407624633431,6783.375366568915,37.6576474,127.0344923
통합,5213064000,군산시,흥남동,현대세솔A경로당,전북특별자치도 군산시 동팔마길 53 (장재동),한파쉼터,1,11242.0,3908.0,0.27121508628357943,0.056484611279131826,0.20679594378224514,2.876663254861822,6687.666734902763,35.9786747,126.7184034
통합,4157056000,김포시,장기동,우미린경로당,"경기도 김포시 김포한강1로 10 (장기동, 초당마을우미린아파트)",한파쉼터,1,40456.0,30273.0,0.13239074550128535,0.09227308681036188,0.1203554478940083,1.336372344993889,6506.9305850097435,37.6394768,126.6665483
통합,4715025000,김천시,아포읍,덕계경로당,경상북도 김천시 아포읍 덕계길 93-6 ,한파쉼터,1,8089.0,2443.0,0.33230312770428977,0.033625911731981706,0.24269996291259732,3.311092918542775,6500.337617683175,36.1619573,128.2205875
통합,2771025900,달성군,유가읍,쌍계2리경로당,대구광역시 달성군 유가읍 유가북길 43 ,한파쉼터,1,15623.0,3908.0,0.0931319208858734,0.12347180439096204,0.10223388593739999,3.997697031729785,6385.1216990788125,35.7016597,128.4620029
통합,2771025900,달성군,유가읍,유곡2리경로당,대구광역시 달성군 유가읍 유가길 51-9 ,한파쉼터,1,15623.0,3908.0,0.0931319208858734,0.12347180439096204,0.10223388593739999,3.997697031729785,6385.1216990788125,35.67091,128.4538
통합,2917060200,북구,운암2동,우정경로당,광주광역시 북구 북문대로20번길 31,한파쉼터,1,10657.0,3908.0,0.29360983391198275,0.03143473773106878,0.21495730505770855,2.7269703172978508,6246.9436028659175,35.1754875,126.8840787
통합,4121057000,광명시,광명6동,광명6동행정복지센터,경기도 광명시 광명로791번길 6 (광명동),한파쉼터,1,12546.0,3908.0,0.1912960306073649,0.06926510441575004,0.15468675274988042,3.2103377686796315,6230.302507676561,37.4710541,126.8486649
통합,4182031000,가평군,설악면,선촌2리경로당,경기도 가평군 설악면 탐선길 30 ,한파쉼터,1,9665.0,3908.0,0.35240558717020176,0.039937920331091566,0.2586652871184687,2.4731320368474923,6182.830092118731,37.6757982,127.4801239
통합,3111063000,중구,병영2동,중울산농협병영지점,울산광역시 중구 병영로 36,한파쉼터,1,9542.0,2380.0,0.19648938957296305,0.06340057636887608,0.15656274561173694,4.009243697478992,5989.496234933061,35.5725176,129.3462837
통합,3111063000,중구,병영2동,병영2동행정복지센터,울산광역시 중구 병영성7길 9 병영2동행정복지센터 (서동),한파쉼터,1,9542.0,2380.0,0.19648938957296305,0.06340057636887608,0.15656274561173694,4.009243697478992,5989.496234933061,35.579387,129.345949
통합,4374525000,증평군,증평읍,증천4리남자,충청북도 증평군 증평읍 문화로 16 ,한파쉼터,1,11832.0,3908.0,0.2101645255803471,0.06462700022537751,0.16650326797385623,3.0276356192425795,5964.644012282498,36.7810832,127.5889546
통합,4374525000,증평군,증평읍,율리1리삼기,충청북도 증평군 증평읍 삼거리길 5 ,한파쉼터,1,11832.0,3908.0,0.2101645255803471,0.06462700022537751,0.16650326797385623,3.0276356192425795,5964.644012282498,36.7155419,127.6298583
통합,4374525000,증평군,증평읍,새마을금고본점,충청북도 증평군 증평읍 중앙로 207-3 ,한파쉼터,1,11832.0,3908.0,0.2101645255803471,0.06462700022537751,0.16650326797385623,3.0276356192425795,5964.644012282498,36.7847696,127.5815946
민방위,2772032000,군위군,효령면,,,,,3609.0,827.0,0.5259074535882516,0.014962593516209476,0.372623995566639,4.363966142684402,5868.661668681984,36.117636,128.574333
통합,1129055500,성북구,삼선동,성북구청,서울특별시 성북구 보문로 168 (삼선동5가),한파쉼터,1,21786.0,12335.0,0.20292848618378775,0.031350408519232535,0.15145506288442118,1.7661937576003244,5827.73292257803,37.589445,127.0168716
민방위,1129071500,성북구,월곡1동,,,,,24918.0,18284.0,0.2199213420017658,0.058110602777108916,0.1713781202343687,1.3628308903959747,5819.83303434697,37.604417,127.034583
민방위,1120067000,성동구,성수2가1동,,,,,13831.0,5709.0,0.22948449135998844,0.034849251681006436,0.17109391945629382,2.422665966018567,5732.996741986337,37.535389,127.054147
통합,1117069000,용산구,서빙고동,서빙고동주민센터,서울특별시 용산구 서빙고로 279 (서빙고동),한파쉼터,1,12166.0,3908.0,0.19299687654118033,0.04898898569784646,0.14979450928818017,3.1131013306038895,5673.315864892528,37.5204145,126.9947219
민방위,4128156000,고양시 덕양구,효자동,,,,,6576.0,950.0,0.11592274351760322,0.14432362557980383,0.12444300813626338,6.922105263157895,5664.616388011317,37.649661,126.911386
통합,4121060000,광명시,철산2동,철산2동행정복지센터,경기도 광명시 시청로 61 (철산동),한파쉼터,1,12393.0,3908.0,0.1720325990478496,0.07826999112402162,0.14390381667070118,3.1711873080859774,5655.495445240531,37.4820739,126.8651873
통합,4129051000,과천시,중앙동,과천시청한파응급대피소,경기도 과천시 관문로 69 (중앙동),한파쉼터,1,11486.0,3908.0,0.20503221312902664,0.06965000870625108,0.16441755180219397,2.939099283520983,5550.488996929376,37.4291547,126.9875872
통합,2771025600,달성군,다사읍,장귀미경로당,대구광역시 달성군 다사읍 문양리 873-1,한파쉼터,1,12972.0,3908.0,0.14766135404420974,0.08157798377305402,0.127836342962863,3.3193449334698055,5504.446603566982,35.8688038,128.4254041
통합,2771025600,달성군,다사읍,서재5리경로당,대구광역시 달성군 다사읍 서재리 131-10,한파쉼터,1,12972.0,3908.0,0.14766135404420974,0.08157798377305402,0.127836342962863,3.3193449334698055,5504.446603566982,35.8771002,128.4977961
통합,2771025600,달성군,다사읍,서재6리경로당,대구광역시 달성군 다사읍 서재리 1083-30,한파쉼터,1,12972.0,3908.0,0.14766135404420974,0.08157798377305402,0.127836342962863,3.3193449334698055,5504.446603566982,35.8736094,128.4983924
통합,2771025600,달성군,다사읍,서재행복문화센터,대구광역시 달성군 다사읍 서재리 423-7,한파쉼터,1,12972.0,3908.0,0.14766135404420974,0.08157798377305402,0.127836342962863,3.3193449334698055,5504.446603566982,35.8712012,128.4974054
통합,4128761000,고양시 일산서구,가좌동,장월경로당,경기도 고양시 일산서구 이산포길 498-58 (구산동),한파쉼터,1,18263.0,8637.0,0.18118600448995237,0.04380441329463944,0.13997152713135846,2.114507352089846,5405.315144147273,37.6818931,126.6836565
민방위,1123074000,동대문구,이문1동,,,,,21429.0,10622.0,0.15465024032852676,0.05455224228848756,0.12462084091651499,2.0174166823573714,5387.5112502353595,37.595572,127.067736
통합,1132068000,도봉구,쌍문3동,쌍문3동구립경로당,서울특별시 도봉구 노해로48길 67-6 (쌍문동),한파쉼터,1,16065.0,8866.0,0.24687208216619982,0.035480859010270774,0.18345471521942108,1.8119783442364088,5340.262576133544,37.6504917,127.0322288
통합,1123057000,동대문구,전농2동,성너머경로당,서울특별시 동대문구 사가정로 191-1 (전농동),한파쉼터,1,17490.0,10622.0,0.24042309891366495,0.04957118353344769,0.18316752429959976,1.6465825644887968,5274.991903596309,37.5787238,127.0656529
통합,4119263000,부천시 원미구,중1동,무지개마을럭키아파트경로당(엘지),경기도 부천시 원미구 중동로 185,한파쉼터,1,13486.0,3908.0,0.13542439072618517,0.06127341934846013,0.11317909931286765,3.4508700102354144,5267.177925622654,37.4967715,126.7665625
통합,4119263000,부천시 원미구,중1동,미리내금호한신한양아파트경로당,경기도 부천시 원미구 소향로 228,한파쉼터,1,13486.0,3908.0,0.13542439072618517,0.06127341934846013,0.11317909931286765,3.4508700102354144,5267.177925622654,37.499989,126.7741692
통합,4119263000,부천시 원미구,중1동,미리내마을은하수촌경로당,경기도 부천시 원미구 소향로 204,한파쉼터,1,13486.0,3908.0,0.13542439072618517,0.06127341934846013,0.11317909931286765,3.4508700102354144,5267.177925622654,37.5004146,126.7708433
통합,4783025300,고령군,대가야읍,중화2리경로당,경상북도 고령군 대가야읍 중화2길 41 ,한파쉼터,1,9297.0,3908.0,0.3212864364848876,0.038399483704420784,0.2364203506507475,2.378966223132037,5228.967758444216,35.7494663,128.2431078
통합,3171026500,울주군,삼남읍,우리은행삼성SDI(출),울산광역시 울주군 삼남읍 반구대로 163 ,한파쉼터,1,10980.0,4131.0,0.23087431693989072,0.048178506375227685,0.1760655737704918,2.657952069716776,5138.352941176471,35.5171944,129.091756
통합,3171026500,울주군,삼남읍,쌍수경로당,울산광역시 울주군 삼남읍 쌍수정1길 14,한파쉼터,1,10980.0,4131.0,0.23087431693989072,0.048178506375227685,0.1760655737704918,2.657952069716776,5138.352941176471,35.5423288,129.1324397
통합,4311231000,청주시 서원구,남이면,석판1리경로당,충청북도 청주시 서원구 남이면 석판리 268-3,한파쉼터,1,9673.0,3908.0,0.286674247906544,0.04445363382611393,0.21400806368241498,2.4751791197543502,5123.8682958034815,36.592886,127.442936
통합,4145058200,하남시,감일동,감일스윗시티(1단지),경기도 하남시 감일로 86-3 주민복지관3 (감일동),한파쉼터,1,13190.0,3908.0,0.10371493555724033,0.140763204447814,0.11482941622441242,3.3751279426816785,5111.96878198567,37.5074,127.1512
통합,4145058200,하남시,감일동,감일스윗시티6단지경로당,경기도 하남시 감일순환로 130-2,한파쉼터,1,13190.0,3908.0,0.10371493555724033,0.140763204447814,0.11482941622441242,3.3751279426816785,5111.96878198567,37.5127585,127.16093
통합,4145058200,하남시,감일동,감일스윗시티10단지경로당,경기도 하남시 감일순환로 35-1,한파쉼터,1,13190.0,3908.0,0.10371493555724033,0.140763204447814,0.11482941622441242,3.3751279426816785,5111.96878198567,37.508596,127.1627511
통합,4311331000,청주시 흥덕구,강내면,강내면행정복지센터,충청북도 청주시 흥덕구 강내면 태성탑연로 433 ,한파쉼터,1,10647.0,3908.0,0.2298299990607683,0.04667981591058514,0.17488494411571334,2.7244114636642784,5072.854145342886,36.6211051,127.3573836
통합,2818575000,연수구,선학동,선학종합사회복지관,"인천광역시 연수구 선학로 14 (선학동, 선학동 시영아파트)",한파쉼터,1,17636.0,10920.0,0.23332955318666365,0.04870718983896575,0.17794284418235426,1.615018315018315,5068.250476190476,37.4186489,126.6962396
민방위,1129068500,성북구,길음2동,,,,,21476.0,12656.0,0.159899422611287,0.0861426708884336,0.13777239709443098,1.6969026548672566,5020.795575221238,37.606542,127.0305
통합,5211151000,전주시 완산구,중앙동,태평2경로당,전북특별자치도 전주시 완산구 물레방아1길 43-68 (태평동),한파쉼터,1,9575.0,3908.0,0.2774934725848564,0.06276762402088773,0.21307571801566577,2.450102354145343,4998.698822927328,35.8221435,127.1363143
통합,2723052600,북구,칠성동,징검다리(대경홈리스복지회),대구광역시 북구 칠성남로38길 22 (칠성동2가),한파쉼터,1,11350.0,3908.0,0.18657209568703467,0.06766817921494339,0.15090092074540729,2.904298874104401,4974.266597422014,35.8750221,128.6005014
통합,2723052600,북구,칠성동,칠성동그린통합쉼터,대구광역시 북구 칠성동2가 2-6,한파쉼터,1,11350.0,3908.0,0.18657209568703467,0.06766817921494339,0.15090092074540729,2.904298874104401,4974.266597422014,35.884591,128.5902822
통합,3171025900,울주군,범서읍,우리은행울산구영지점,울산광역시 울주군 범서읍 구영로 104,한파쉼터,1,13361.0,4131.0,0.13762236924827112,0.06252432416250038,0.11509295572253989,3.234325829097071,4973.607123845006,35.5731854,129.2417274
통합,3171025900,울주군,범서읍,점촌경로당,울산광역시 울주군 범서읍 구영앞길 74,한파쉼터,1,13361.0,4131.0,0.13762236924827112,0.06252432416250038,0.11509295572253989,3.234325829097071,4973.607123845006,35.5684879,129.2388393
통합,3171025900,울주군,범서읍,서울산새마을금고천상지점,울산광역시 울주군 범서읍 천상중앙길 99,한파쉼터,1,13361.0,4131.0,0.13762236924827112,0.06252432416250038,0.11509295572253989,3.234325829097071,4973.607123845006,35.562362,129.225687
통합,3171025900,울주군,범서읍,서사경로당,울산광역시 울주군 범서읍 두산로 49,한파쉼터,1,13361.0,4131.0,0.13762236924827112,0.06252432416250038,0.11509295572253989,3.234325829097071,4973.607123845006,35.591117,129.270582
통합,3171025900,울주군,범서읍,하나은행구영지점,울산광역시 울주군 범서읍 구영로 100,한파쉼터,1,13361.0,4131.0,0.13762236924827112,0.06252432416250038,0.11509295572253989,3.234325829097071,4973.607123845006,35.5736239,129.2413759
통합,4136034000,남양주시,수동면,내방1리경로당,경기도 남양주시 수동면 비룡로1324번길 49 ,한파쉼터,1,8445.0,3908.0,0.3764357608052102,0.022498519834221433,0.27025458851391354,2.160951893551689,4931.940506653019,37.7374307,127.2924981
통합,4122052000,평택시,서정동,서정동지장경로당,경기도 평택시 송탄2로19번길 35-6 (서정동),한파쉼터,1,12337.0,4618.0,0.1963200129691173,0.03906946583448164,0.14914484882872658,2.6715028150714595,4915.565179731485,37.0729832,127.0567487
통합,4122052000,평택시,서정동,서정동지장경로당,경기도 평택시 서정로 202 (서정동),한파쉼터,1,12337.0,4618.0,0.1963200129691173,0.03906946583448164,0.14914484882872658,2.6715028150714595,4915.565179731485,37.0662472,127.0557475
통합,4182034500,가평군,조종면,조종면행정복지센터,경기도 가평군 조종면 조종내길 71 ,한파쉼터,1,9129.0,3908.0,0.2983897469602366,0.056632708949501585,0.2258626355570161,2.3359774820880244,4816.551970317298,37.817533,127.3532689
통합,4122031000,평택시,진위면,견산5리경로당,경기도 평택시 진위면 진위서로 84-10 (서울아트빌라),한파쉼터,1,10647.0,4618.0,0.26429980276134124,0.02573494881187189,0.19273034657650043,2.305543525335643,4730.97531398874,37.1068615,127.0719998
통합,5113059000,원주시,단계동,샘둔지경로당,강원특별자치도 원주시 천사로 106 (단계동),한파쉼터,1,13484.0,5858.0,0.18904587087922275,0.06211295286832054,0.15096599547595208,2.301809491293957,4685.622057484039,37.3486161,127.9365206
통합,5113059000,원주시,단계동,푸르지오아파트경로당,"강원특별자치도 원주시 봉화서부로 11 (단계동, 원주봉화산푸르지오아파트)",한파쉼터,1,13484.0,5858.0,0.18904587087922275,0.06211295286832054,0.15096599547595208,2.301809491293957,4685.622057484039,37.3549528,127.920481
통합,5273025000,무주군,무주읍,무주새마을금고,전북특별자치도 무주군 무주읍 주계로 77 ,한파쉼터,1,9210.0,3908.0,0.2820846905537459,0.05266015200868621,0.21325732899022798,2.356704196519959,4628.802712384851,36.00636,127.65868
통합,4719064500,구미시,상모사곡동,칠곡축산농협사곡지점,경상북도 구미시 사곡로 1,한파쉼터,1,14834.0,3908.0,0.0899929219050187,0.06296134011931646,0.08188344736930803,3.7958034800409415,4610.6070804684905,36.095121,128.355998
통합,4719064500,구미시,상모사곡동,상모새마을금고,경상북도 구미시 상모로 54,한파쉼터,1,14834.0,3908.0,0.0899929219050187,0.06296134011931646,0.08188344736930803,3.7958034800409415,4610.6070804684905,36.0896023,128.3560409
통합,4111569000,수원시 팔달구,화서2동,화서4단지(아)경로당,"경기도 수원시 팔달구 덕영대로697번길 48 (화서동, 화서주공아파트)",한파쉼터,1,12006.0,3908.0,0.15504747626186907,0.05363984674329502,0.12462518740629686,3.072159672466735,4596.718909928352,37.2845873,126.9926727
통합,4111569000,수원시 팔달구,화서2동,화서5단지(아)경로당,"경기도 수원시 팔달구 덕영대로697번길 48 (화서동, 화서주공아파트)",한파쉼터,1,12006.0,3908.0,0.15504747626186907,0.05363984674329502,0.12462518740629686,3.072159672466735,4596.718909928352,37.2840282,126.9908488
통합,2626052000,동래구,복산동,동래구청,부산광역시 동래구 충렬대로237번길 93 (복천동),한파쉼터,1,8059.0,3908.0,0.3809405633453282,0.02357612607023204,0.2737312321627993,2.0621801432958033,4549.169396110541,35.2050317,129.0836906
통합,2818563000,연수구,옥련1동,청량경로당,인천광역시 연수구 한나루로180번길 23 (옥련동),한파쉼터,1,17094.0,10920.0,0.22317772317772316,0.03913653913653914,0.16796536796536793,1.5653846153846154,4494.532307692307,37.4248146,126.6574906
통합,4833056000,양산시,평산동,내연마을경로당,경상남도 양산시 내연1길 18 (평산동),한파쉼터,1,9417.0,3908.0,0.25566331587144275,0.04615602435225825,0.1928111284156874,2.4096724667349028,4375.248072125871,35.3725545,129.143402
통합,4833056000,양산시,평산동,한일유앤아이아파트경로당,"경상남도 양산시 평산로 116 (평산동, 양산천성산한일유앤아이아파트)",한파쉼터,1,9417.0,3908.0,0.25566331587144275,0.04615602435225825,0.1928111284156874,2.4096724667349028,4375.248072125871,35.3842676,129.1421038
통합,4833056000,양산시,평산동,선우3차경로당,"경상남도 양산시 평산로 102-13 (평산동, 선우3차아파트)",한파쉼터,1,9417.0,3908.0,0.25566331587144275,0.04615602435225825,0.1928111284156874,2.4096724667349028,4375.248072125871,35.3828112,129.1434905
민방위,4128751000,고양시 일산서구,일산1동,,,,,12463.0,5760.0,0.2104629703923614,0.04685870175720132,0.16138168980181336,2.163715277777778,4351.880538194445,37.689519,126.76895
통합,2717052500,서구,내당2.3동,"내당2,3동행정복지센터",대구광역시 서구 내당동 895-27,한파쉼터,1,8107.0,3908.0,0.3574688540767238,0.019365980017269028,0.25603799185888737,2.0744626407369497,4305.962103377687,35.863316,128.570712
민방위,3171025900,울주군,범서읍,,,,,11134.0,3330.0,0.13762236924827112,0.06252432416250038,0.11509295572253989,3.3435435435435434,4284.567052555654,35.572592,129.239606
통합,4715051600,김천시,자산동,모암경로당,경상북도 김천시 모암사랑6길 13-6 (모암동),한파쉼터,1,5857.0,2443.0,0.42171760286836263,0.024244493768140685,0.30247567013829607,2.397462136717151,4247.3439214081045,36.1236863,128.1258427
통합,4375037000,진천군,광혜원면,목화1차마을회관,충청북도 진천군 광혜원면 화랑6길 5  (광혜원목화아파트),한파쉼터,1,10639.0,3908.0,0.18902152457937776,0.04408309051602594,0.1455399943603722,2.7223643807574205,4215.309007164789,36.990314,127.439579
통합,4413325300,천안시 서북구,성거읍,석교3리,충청남도 천안시 서북구 성거읍 석교2길 34-6 (유원빌라트),한파쉼터,1,10764.0,3908.0,0.18026847508012447,0.05239444470249431,0.14190626596683542,2.754350051177073,4207.211990910073,36.8561693,127.1886502
통합,4413325300,천안시 서북구,성거읍,성거읍복지회관,충청남도 천안시 서북구 성거읍 천흥1길 16 ,한파쉼터,1,10764.0,3908.0,0.18026847508012447,0.05239444470249431,0.14190626596683542,2.754350051177073,4207.211990910073,36.8693026,127.2007916
통합,4783034000,고령군,다산면,못골경로당,경상북도 고령군 다산면 곽촌리 641,한파쉼터,1,8482.0,3908.0,0.30629568497995757,0.040438575807592546,0.22653855222824806,2.170419651995906,4170.461361310134,35.835595,128.436201
민방위,4128556000,고양시 일산동구,마두1동,,,,,11306.0,4059.0,0.1678754643552096,0.042897576508048825,0.13038209800106138,2.7854151268785414,4105.9804385316575,37.659161,126.775
통합,4165051000,포천시,포천동,특별경로당,경기도 포천시 중앙로105번길 33 (신읍동),한파쉼터,1,9577.0,3908.0,0.22888169572935158,0.048919285788869164,0.17489297274720686,2.4506141248720574,4104.656128454452,37.8966257,127.198669
통합,4165051000,포천시,포천동,포천시청앞스마트버스정류장,경기도 포천시 신읍동 33-57,한파쉼터,1,9577.0,3908.0,0.22888169572935158,0.048919285788869164,0.17489297274720686,2.4506141248720574,4104.656128454452,37.8949878,127.2015702
통합,3111052000,중구,반구1동,중울산농협반구지점,울산광역시 중구 화합로 345,한파쉼터,1,7732.0,2380.0,0.208729388942774,0.055156805690268346,0.16265761396702233,3.2487394957983193,4085.8378847329436,35.5568681,129.3410043
통합,3111052000,중구,반구1동,중울산농협서원지점,울산광역시 중구 반구로 15 (반구동),한파쉼터,1,7732.0,2380.0,0.208729388942774,0.055156805690268346,0.16265761396702233,3.2487394957983193,4085.8378847329436,35.5550502,129.3427894
통합,4137054600,오산시,신장2동,내삼미1동노인회관,경기도 오산시 삼미로47번길 61 (내삼미동),한파쉼터,1,11308.0,3908.0,0.14136009904492394,0.07755571276972055,0.12221878316236291,2.8935516888433983,3999.033111566018,37.1774195,127.0691814
통합,4137054600,오산시,신장2동,평화경로당,경기도 오산시 오산로368번길 10 (궐동),한파쉼터,1,11308.0,3908.0,0.14136009904492394,0.07755571276972055,0.12221878316236291,2.8935516888433983,3999.033111566018,37.160301,127.067035
민방위,3114057000,남구,삼산동,,,,,23671.0,15806.0,0.13651725740357398,0.050969540788306365,0.1108529424189937,1.4975958496773376,3929.691509553334,35.535442,129.348222
통합,2871033000,강화군,길상면,덕성리경로당,인천광역시 강화군 길상면 강화동로74번길 53 ,한파쉼터,1,7244.0,3908.0,0.4007454445057979,0.030093870789618993,0.2895499723909442,1.8536335721596724,3887.996417604913,37.6476814,126.4978595
통합,4833034000,양산시,하북면,서리마을경로당,경상남도 양산시 하북면 지산리 182-5,한파쉼터,1,7520.0,3908.0,0.3785904255319149,0.01223404255319149,0.2686835106382979,1.924257932446264,3887.9631525076766,35.4974846,129.0759981
통합,4157055000,김포시,풍무동,풍무동행정복지센터,경기도 김포시 풍무로 74 (풍무동),한파쉼터,1,29916.0,30273.0,0.15341032540571256,0.07652967426002373,0.1303461300620059,0.9882073134476266,3853.450014289516,37.6020475,126.72196
통합,4157055000,김포시,풍무동,풍무도서관,경기도 김포시 유현로 191 (풍무동),한파쉼터,1,29916.0,30273.0,0.15341032540571256,0.07652967426002373,0.1303461300620059,0.9882073134476266,3853.450014289516,37.6075681,126.7297035
통합,4812759000,창원시 마산회원구,합성2동,합성2동제3경로당,경상남도 창원시 마산회원구 합성동3길 12,한파쉼터,1,8464.0,3908.0,0.2793005671077505,0.04655009451795841,0.20947542533081284,2.1658137154554757,3839.9877175025586,35.2423814,128.5865298
통합,1130560800,강북구,번3동,꿈의숲종합사회복지관,"서울특별시 강북구 오현로 208 (번동, 번동주공아파트)",한파쉼터,1,7886.0,3908.0,0.32876799188383743,0.03626910151543973,0.2410183247733181,2.017911975435005,3835.3857817949283,37.6291813,127.0419824
통합,1130560800,강북구,번3동,100세건강플러스,서울특별시 강북구 한천로109길 16 (번동),한파쉼터,1,7886.0,3908.0,0.32876799188383743,0.03626910151543973,0.2410183247733181,2.017911975435005,3835.3857817949283,37.6289158,127.0424974
통합,2818576100,연수구,연수1동,함박종합사회복지관,인천광역시 연수구 연수동 652,한파쉼터,1,16432.0,10920.0,0.20965189873417722,0.026594449853943526,0.1547346640701071,1.5047619047619047,3826.007619047619,37.425981,126.687161
통합,3120059000,북구,염포동,현대모비스(주)(본점)새마을금고,울산광역시 북구 염포로 706,한파쉼터,1,9732.0,3908.0,0.20047266748869708,0.05024660912453761,0.1554048499794492,2.490276356192426,3766.293961105424,35.5271022,129.3920336
통합,4119457000,부천시 소사구,괴안동,대현청실경로당,경기도 부천시 안곡로79번길 36,한파쉼터,1,9098.0,3908.0,0.23402033525693872,0.04143995603187689,0.17624622148942015,2.328045035823951,3732.992565010633,37.4799889,126.8111049
통합,4119457000,부천시 소사구,괴안동,동산교회,경기도 부천시 소사구 소사동로 123 (괴안동),한파쉼터,1,9098.0,3908.0,0.23402033525693872,0.04143995603187689,0.17624622148942015,2.328045035823951,3732.992565010633,37.475899,126.8071845
민방위,2818579500,연수구,동춘3동,,,,,17539.0,10920.0,0.15873196875534523,0.052682593078282686,0.12691715605222645,1.6061355311355312,3575.2576923076917,37.408658,126.680333
통합,4613034000,여수시,남면,남면보건지소,전라남도 여수시 남면 금오로 858 ,한파쉼터,1,2624.0,752.0,0.5415396341463414,0.013719512195121951,0.38319359756097554,3.4893617021276597,3508.553191489361,34.5091979,127.767233
통합,3017058600,서구,월평1동,월평타운(아)경로당,"대전광역시 서구 계룡로264번길 4 관리사무소 (월평동, 월평타운)",한파쉼터,1,10979.0,3908.0,0.1520174879315056,0.02431915474997723,0.11370798797704709,2.809365404298874,3507.211770726715,36.352005,127.36032
통합,2717066000,서구,평리5동,평리5동행정복지센터,대구광역시 서구 평리동 1485-5,한파쉼터,1,10306.0,3908.0,0.12458761886279837,0.13642538327188045,0.128138948185523,2.637154554759468,3482.626305015353,35.874538,128.550483
통합,4413325600,천안시 서북구,직산읍,모시리우성@경로당,충청남도 천안시 서북구 직산읍 모시리 319,한파쉼터,1,9644.0,3908.0,0.1871727070047182,0.047182039715870795,0.145175506818064,2.4677584442169906,3455.0409509452093,36.8702785,127.1276229
통합,4413325600,천안시 서북구,직산읍,남산2리경로당,충청남도 천안시 서북구 직산읍 남산리 281-5,한파쉼터,1,9644.0,3908.0,0.1871727070047182,0.047182039715870795,0.145175506818064,2.4677584442169906,3455.0409509452093,36.8920333,127.1701181
민방위,3171025900,울주군,범서읍,,,,,11134.0,4131.0,0.13762236924827112,0.06252432416250038,0.11509295572253989,2.6952311788913095,3453.7904345219868,35.550975,129.250833
민방위,3171025900,울주군,범서읍,,,,,11134.0,4131.0,0.13762236924827112,0.06252432416250038,0.11509295572253989,2.6952311788913095,3453.7904345219868,35.549192,129.251353
통합,4711371000,포항시 북구,환여동,환여동행정복지센터,경상북도 포항시 북구 삼호로 400 (환호동),한파쉼터,1,8610.0,3908.0,0.22961672473867595,0.06318234610917538,0.17968641114982575,2.2031729785056293,3408.5289150460585,36.0682475,129.3918845
민방위,1114062500,중구,다산동,,,,,13115.0,9019.0,0.24086923370186808,0.03004193671368662,0.17762104460541364,1.4541523450493403,3387.4478877924385,37.554914,127.009981
통합,4683025000,영암군,영암읍,망호정마을회관,"전라남도 영암군 영암읍 망호정길 36 , 망호정마을회관",한파쉼터,1,7657.0,3908.0,0.30246832963301556,0.04675460363066475,0.22575421183231031,1.9593142272262027,3386.870573183214,34.8087197,126.6867419
민방위,3114057000,남구,삼산동,,,,,23671.0,18802.0,0.13651725740357398,0.050969540788306365,0.1108529424189937,1.2589618125731306,3303.5157961918944,35.536631,129.349006
통합,2641055500,금정구,금사회동동,금사동행정복지센터,부산광역시 금정구 금사로 76 (금사동),한파쉼터,1,6754.0,3908.0,0.39280426413976904,0.01998815516730826,0.2809594314480308,1.7282497441146367,3279.526714431935,35.2195173,129.111298
통합,3111062000,중구,병영1동,병영1동행정복지센터,울산광역시 중구 병영3길 8 병영1동행정복지센터 (남외동),한파쉼터,1,6733.0,2380.0,0.22220021784335084,0.04762847806713536,0.1698286959104862,2.8289915966386556,3234.829139581172,35.57004,129.346587
통합,3111062000,중구,병영1동,병영(본점)새마을금고,울산광역시 중구 병영로 6,한파쉼터,1,6733.0,2380.0,0.22220021784335084,0.04762847806713536,0.1698286959104862,2.8289915966386556,3234.829139581172,35.5698808,129.3462756
통합,3111062000,중구,병영1동,중울산농협본점,울산광역시 중구 번영로 564,한파쉼터,1,6733.0,2380.0,0.22220021784335084,0.04762847806713536,0.1698286959104862,2.8289915966386556,3234.829139581172,35.5680462,129.343773
통합,5179025000,화천군,화천읍,대호장여관,강원특별자치도 화천군 화천읍 상승로 49-10 ,한파쉼터,1,8178.0,3908.0,0.2363658596233798,0.06749816581071166,0.18570555147957934,2.092630501535312,3178.077942681678,38.1056645,127.7041769
통합,1120054000,성동구,마장동,마장축산물시장(도선사거리)스마트쉼터,서울특별시 성동구 고산자로 344-1 (마장동),한파쉼터,1,10695.0,5709.0,0.20799438990182328,0.042402992052360915,0.15831697054698457,1.8733578560168156,3171.969521807672,37.5702886,127.0375139
통합,1120054000,성동구,마장동,마장축산물시장(동대문구청.용두역3번출구)스마트쉼터,서울특별시 성동구 고산자로 344-1 (마장동),한파쉼터,1,10695.0,5709.0,0.20799438990182328,0.042402992052360915,0.15831697054698457,1.8733578560168156,3171.969521807672,37.5709837,127.0380101
통합,4141057000,군포시,재궁동,군포시청한파쉼터,경기도 군포시 청백리길 6 (금정동),한파쉼터,1,8470.0,3908.0,0.2263738858390886,0.03807331326367983,0.16988371406646596,2.1673490276356193,3118.6311521164093,37.361451,126.9353233
통합,4141057000,군포시,재궁동,군포시청당직실,경기도 군포시 청백리길 6 (금정동),한파쉼터,1,8470.0,3908.0,0.2263738858390886,0.03807331326367983,0.16988371406646596,2.1673490276356193,3118.6311521164093,37.3616131,126.9351768
통합,4831034000,거제시,거제면,명진경로당,경상남도 거제시 거제면 산촌명진길 156 ,한파쉼터,1,6792.0,3908.0,0.3588044758539458,0.03312720848056537,0.2611012956419317,1.7379733879222108,3082.1220061412487,34.8447836,128.6110863
통합,4824033000,사천시,용현면,선진경로당,경상남도 사천시 용현면 선진리 1100-10,한파쉼터,1,7400.0,3908.0,0.29027027027027025,0.045675675675675674,0.21689189189189187,1.893551688843398,3039.1504605936534,35.0409048,128.0410838
민방위,4157057500,김포시,마산동,,,,,35576.0,53954.0,0.135793793568698,0.11375646503260625,0.12918259500787047,0.6593765059124439,3030.362545872409,37.639942,126.634789
통합,5211168000,전주시 완산구,서신동,현대경로당,"전북특별자치도 전주시 완산구 서신로 90 (서신동, 현대아파트)",한파쉼터,1,9556.0,3908.0,0.15928948882959243,0.05982838905457019,0.12945115889708575,2.445240532241556,3024.848792825688,35.8329542,127.1167789
통합,5211168000,전주시 완산구,서신동,서신동아2차경로당,"전북특별자치도 전주시 완산구 새터로 63 (서신동, 동아2차아파트)",한파쉼터,1,9556.0,3908.0,0.15928948882959243,0.05982838905457019,0.12945115889708575,2.445240532241556,3024.848792825688,35.8362824,127.114038
통합,5211168000,전주시 완산구,서신동,우성경로당,전북특별자치도 전주시 완산구 서신천변15길 11-8 (서신동),한파쉼터,1,9556.0,3908.0,0.15928948882959243,0.05982838905457019,0.12945115889708575,2.445240532241556,3024.848792825688,35.8312495,127.1128824
통합,5211168000,전주시 완산구,서신동,그린공원경로당,전북특별자치도 전주시 완산구 당산로 56 (서신동),한파쉼터,1,9556.0,3908.0,0.15928948882959243,0.05982838905457019,0.12945115889708575,2.445240532241556,3024.848792825688,35.8315381,127.114386
통합,2629055000,남구,대연5동,남구도서관,부산광역시 남구 수영로267번길 61 (대연동),한파쉼터,1,16150.0,15806.0,0.24402476780185758,0.03851393188854489,0.18237151702786375,1.0217638871314692,3009.401176768316,35.1378287,129.0946367
통합,4782025000,청도군,화양읍,합천2리(밤밭),경상북도 청도군 화양읍 합천2길 11,한파쉼터,1,6874.0,3908.0,0.33270293860925226,0.04742508001163805,0.24711958102996798,1.7589559877175025,2987.938536335721,35.660938,128.708075
통합,4159057000,화성시,화산동,화성우미린센트포레2단지경로당(안녕16통),경기도 화성시 안녕동 245,한파쉼터,1,9233.0,3908.0,0.16672683948299516,0.06708065564300672,0.1368329843309986,2.362589559877175,2984.8459040382395,37.2070692,127.0015476
통합,4159057000,화성시,화산동,화성시근로자종합복지관,경기도 화성시 화산중앙로 16-1,한파쉼터,1,9233.0,3908.0,0.16672683948299516,0.06708065564300672,0.1368329843309986,2.362589559877175,2984.8459040382395,37.2063524,127.0148271
통합,4159057000,화성시,화산동,화성우미린센트포레1단지경로당(안녕15통),경기도 화성시 안녕동 246,한파쉼터,1,9233.0,3908.0,0.16672683948299516,0.06708065564300672,0.1368329843309986,2.362589559877175,2984.8459040382395,37.2057237,127.0038863
통합,4119451000,부천시 소사구,심곡본1동,심곡e편한세상경로당,경기도 부천시 소사구 성주로 158,한파쉼터,1,7793.0,3908.0,0.2599127422045425,0.033684075452329015,0.19204414217887847,1.994114636642784,2984.3919651995902,37.4783153,126.7739451
통합,4119451000,부천시 소사구,심곡본1동,부천시흥원예농협본점,경기도 부천시 소사구 심곡로15번길 32 (심곡본동),한파쉼터,1,7793.0,3908.0,0.2599127422045425,0.033684075452329015,0.19204414217887847,1.994114636642784,2984.3919651995902,37.4820185,126.778332
통합,3611036000,,연서면,월하4리경로당,세종특별자치시 연서면 월하리 42-2,한파쉼터,1,6586.0,3908.0,0.36926814454904344,0.027938050409960523,0.2668691163073186,1.6852610030706243,2962.0147389969297,36.5743404,127.2984177
통합,4421052500,서산시,동문1동,1호광장버스승강장,충청남도 서산시 동문동 716-8,한파쉼터,1,8554.0,3908.0,0.20130932896890344,0.05313303717559037,0.15685644143090952,2.1888433981576254,2936.880629477994,36.78367,126.4522446
통합,4421052500,서산시,동문1동,동부전통시장버스승강장,충청남도 서산시 동문동 881-3,한파쉼터,1,8554.0,3908.0,0.20130932896890344,0.05313303717559037,0.15685644143090952,2.1888433981576254,2936.880629477994,36.7836418,126.4564267
통합,4611056500,목포시,대성동,종원나이스빌경로당,전라남도 목포시 양을로 21  (산정동),한파쉼터,1,4608.0,1433.0,0.2439236111111111,0.06575520833333333,0.19047309027777776,3.215631542219121,2822.3598046057223,34.8008404,126.3792378
통합,5275025000,임실군,임실읍,장재경로당,전북특별자치도 임실군 임실읍장재1길 34-1,한파쉼터,1,7085.0,3908.0,0.279181369089626,0.07071277346506705,0.2166407904022583,1.8129477993858751,2782.69357727738,35.592126,127.245251
통합,2717060000,서구,비산6동,IM뱅크북비산지점,대구광역시 서구 달서로 183 (비산동),한파쉼터,1,6522.0,3908.0,0.33655320453848514,0.016865992026985587,0.24064704078503524,1.6688843398157625,2619.3139713408386,35.8787124,128.5710146
통합,3114053000,남구,신정3동,강남(본점)새마을금고,울산광역시 남구 신정로 167,한파쉼터,1,15540.0,15806.0,0.2167953667953668,0.05772200772200772,0.16907335907335905,0.983170947741364,2583.1833480956593,35.546363,129.317566
통합,1120069000,성동구,성수2가3동,화양사거리(성수초등학교)스마트쉼터,서울특별시 성동구 광나루로8길 31 (성수동2가),한파쉼터,1,9563.0,5709.0,0.20777998536024261,0.038690787409808636,0.15705322597511243,1.6750744438605711,2515.794307234192,37.54731,127.0666614
통합,2772035000,군위군,의흥면,매성2리경로당,대구광역시 군위군 의흥면 윗매성길 8 ,한파쉼터,1,2232.0,827.0,0.581989247311828,0.011200716845878136,0.410752688172043,2.698911729141475,2474.3622732769045,36.1457071,128.751601
통합,4617039000,나주시,금천면,코오롱하늘채,전라남도 나주시 금천면 천석길 35 (빛가람코오롱하늘채아파트),한파쉼터,1,6756.0,3908.0,0.27087033747779754,0.0682356423919479,0.21007992895204264,1.728761514841351,2453.6312180143295,35.0317973,126.7735684
민방위,1150056000,강서구,화곡3동,,,,,20683.0,31308.0,0.23869844800077358,0.04003287724217957,0.17909877677319538,0.6606298709594992,2447.171230995273,37.544708,126.832569
통합,2820058300,남동구,만수6동,한국아파트경로당,"인천광역시 남동구 담방로21번길 23  (만수동, 한국아파트)",한파쉼터,1,7311.0,3908.0,0.2414972189295158,0.03145801039482082,0.1784854563691073,1.8707778915046058,2441.1914869352163,37.441103,126.737311
통합,2820058300,남동구,만수6동,삼익아파트경로당,"인천광역시 남동구 장승남로 70-30 (만수동, 삼익아파트)",한파쉼터,1,7311.0,3908.0,0.2414972189295158,0.03145801039482082,0.1784854563691073,1.8707778915046058,2441.1914869352163,37.4425424,126.7399335
통합,2820058300,남동구,만수6동,진흥아파트경로당,"인천광역시 남동구 장승남로81번길 16  (만수동, 진흥아파트)",한파쉼터,1,7311.0,3908.0,0.2414972189295158,0.03145801039482082,0.1784854563691073,1.8707778915046058,2441.1914869352163,37.444226,126.742039
통합,1120072000,성동구,송정동,성동세무서(제인병원)스마트쉼터,서울특별시 성동구 송정동 66-30,한파쉼터,1,9279.0,5709.0,0.21683371052915185,0.032546610626145056,0.1615475805582498,1.625328428796637,2436.367314766159,37.5482734,127.064175
통합,4159033000,화성시,마도면,청원1리경로당,경기도 화성시 마도면 해운로 770-2 ,한파쉼터,1,6583.0,3908.0,0.3044204769861765,0.019444022482150995,0.21892754063496886,1.6844933469805528,2427.691811668373,37.1859824,126.7593929
통합,4682034000,해남군,송지면,만호경로당,전라남도 해남군 송지면 어란리 1306-1,한파쉼터,1,5501.0,3908.0,0.4326486093437557,0.032175968005817124,0.31250681694237414,1.407625383828045,2419.8487973387923,34.3554274,126.4773318
통합,4418056500,보령시,대천5동,신흑4통경로당,충청남도 보령시 대천항로 142-40 (신흑동),한파쉼터,1,5794.0,3908.0,0.3898860890576458,0.026924404556437694,0.28099758370728334,1.4825997952917094,2413.8207267144317,36.3173799,126.5207521
통합,2917066300,북구,두암3동,주공1경로당,"광주광역시 북구 삼정로 7 (두암동, 율곡타운아파트,두암주공2단지아파트)",한파쉼터,1,5879.0,3908.0,0.37387310767137266,0.020581731587004593,0.26788569484606223,1.5043500511770727,2369.2008955987717,35.1637311,126.9357347
통합,2917066300,북구,두암3동,무등노숙인쉼터,"광주광역시 북구 삼정로 10 (두암동, 두암주공4단지 아파트)",한파쉼터,1,5879.0,3908.0,0.37387310767137266,0.020581731587004593,0.26788569484606223,1.5043500511770727,2369.2008955987717,35.1629528,126.938058
통합,4723038000,영천시,고경면,차당경로당,경상북도 영천시 고경면 차당리 687,한파쉼터,1,5483.0,3908.0,0.42239649826737186,0.033923034834944375,0.3058544592376436,1.4030194472876152,2352.8636131013304,35.983109,129.0633515
통합,4611078000,목포시,삼향동,석현현대A경로당,전라남도 목포시 영산로 676-7,한파쉼터,1,4272.0,1433.0,0.24602059925093633,0.04143258426966292,0.18464419475655428,2.98115840893231,2351.537752965806,34.8260442,126.4241573
통합,4159032000,화성시,비봉면,구포2리경로당,경기도 화성시 비봉면 일묵동길 92 ,한파쉼터,1,7649.0,3908.0,0.18538371028892667,0.08373643613544254,0.15488952804288142,1.957267144319345,2318.872249232344,37.2469629,126.8768227
통합,4159032000,화성시,비봉면,쌍학3리경로당,경기도 화성시 비봉면 쌍학리 852-10,한파쉼터,1,7649.0,3908.0,0.18538371028892667,0.08373643613544254,0.15488952804288142,1.957267144319345,2318.872249232344,37.2361626,126.9011923
통합,4477025300,서천군,서천읍,서천코아루천년가경로당,충청남도 서천군 서천읍 대백제로 1042-41 (서천 코아루 천년가 아파트),한파쉼터,1,6271.0,3908.0,0.30736724605326105,0.05047041939084675,0.23029819805453675,1.6046571136131014,2317.445803480041,36.0860995,126.6844402
통합,4477025300,서천군,서천읍,서천읍행복경로당,충청남도 서천군 서천읍 군청안길 27 ,한파쉼터,1,6271.0,3908.0,0.30736724605326105,0.05047041939084675,0.23029819805453675,1.6046571136131014,2317.445803480041,36.0772255,126.6941684
통합,4163032000,양주시,남면,남면주민자치센터,경기도 양주시 남면 신산리 254,한파쉼터,1,5997.0,3908.0,0.3455060863765216,0.03118225779556445,0.2512089378022344,1.534544524053224,2311.791325486182,37.9003568,126.9775879
통합,4471039000,금산군,추부면,신평1리경로당,충청남도 금산군 추부면신평길 12-14,한파쉼터,1,5928.0,3908.0,0.35610661268556004,0.02412280701754386,0.2565114709851552,1.5168884339815762,2306.580552712385,36.226256,127.506504
통합,4827031000,밀양시,부북면,대한노인회부북분회,경상남도 밀양시 부북면 용운길 11-2 ,한파쉼터,1,5262.0,3908.0,0.45610034207525657,0.01919422272900038,0.3250285062713797,1.3464687819856704,2302.8655578300923,35.5120332,128.7295666
민방위,4128751000,고양시 일산서구,일산1동,,,,,12463.0,10890.0,0.2104629703923614,0.04685870175720132,0.16138168980181336,1.1444444444444444,2301.821111111111,37.689931,126.76905
통합,4691025300,신안군,압해읍,마산(매화4)경로당,전라남도 신안군 압해읍 매화리 2043,한파쉼터,1,5669.0,3908.0,0.3864879167401658,0.031046039865937555,0.2798553536778973,1.4506141248720572,2301.399309109519,34.9526457,126.2492489
통합,3111058500,중구,중앙동,우리은행울산지점,울산광역시 중구 학성로 100,한파쉼터,1,4730.0,2380.0,0.32857595940374246,0.025266941537160376,0.23758325404376782,1.9873949579831933,2233.372430418409,35.5552205,129.3219531
통합,3111058500,중구,중앙동,국민은행(울산),울산광역시 중구 중앙길 88,한파쉼터,1,4730.0,2380.0,0.32857595940374246,0.025266941537160376,0.23758325404376782,1.9873949579831933,2233.372430418409,35.555138,129.318166
통합,4420037000,아산시,영인면,성내2리경로당,충청남도 아산시 영인면 성내안길 1 성내2리 경로당 ,한파쉼터,1,5195.0,3908.0,0.4440808469682387,0.022329162656400385,0.3175553416746872,1.329324462640737,2192.9865660184237,36.8705,126.9834
통합,4684025300,무안군,일로읍,황소안마을회관(월암1리),"전라남도 무안군 일로읍 일로신흥길 5 , 월암1리회관",한파쉼터,1,8012.0,3908.0,0.127719765361734,0.146108083371469,0.13323626076465447,2.0501535312180144,2188.5161814294397,34.8458972,126.4957631
통합,4684025300,무안군,일로읍,망해동경로당,전라남도 무안군 일로읍 망월길 45-50 ,한파쉼터,1,8012.0,3908.0,0.127719765361734,0.146108083371469,0.13323626076465447,2.0501535312180144,2188.5161814294397,34.7937348,126.4951448
통합,4684025300,무안군,일로읍,청금성마을회관(지장3리),"전라남도 무안군 일로읍 청금성길 85 , 청금성회관",한파쉼터,1,8012.0,3908.0,0.127719765361734,0.146108083371469,0.13323626076465447,2.0501535312180144,2188.5161814294397,34.8699713,126.4802827
통합,2720054000,남구,봉덕2동,남부경로당,대구광역시 남구 봉덕로22길 20-4,한파쉼터,1,13052.0,15806.0,0.25773827765859636,0.07362856267238738,0.20250536316273365,0.8257623687207389,2182.5725167657847,35.8437271,128.6014018
통합,5271033000,완주군,이서면,KB국민은행전북혁신도시지점,전북특별자치도 완주군 이서면 기지로 35,한파쉼터,1,7649.0,3908.0,0.17688586743365145,0.0716433520721663,0.1453131128252059,1.957267144319345,2175.502430910952,35.8387118,127.0559563
통합,5271033000,완주군,이서면,NH농협은행전북혁신도시지점,전북특별자치도 완주군 이서면 안전로 163,한파쉼터,1,7649.0,3908.0,0.17688586743365145,0.0716433520721663,0.1453131128252059,1.957267144319345,2175.502430910952,35.8387306,127.0581081
통합,4420025000,아산시,염치읍,쌍죽1리경로당,충청남도 아산시 염치읍 쌍죽길 10,한파쉼터,1,5721.0,3908.0,0.3583289634679252,0.026044397832546758,0.25864359377731166,1.4639201637666326,2166.1626663254865,36.817576,126.974526
통합,4418053500,보령시,대천3동,동대5통경로당,충청남도 보령시 신설3길 59,한파쉼터,1,7683.0,3908.0,0.17115710009111024,0.07353898216842379,0.1418716647143043,1.9659672466734903,2142.904298874104,36.3520932,126.6056058
통합,4418053500,보령시,대천3동,"동대14,15통경로당",충청남도 보령시 주공로 33,한파쉼터,1,7683.0,3908.0,0.17115710009111024,0.07353898216842379,0.1418716647143043,1.9659672466734903,2142.904298874104,36.3443959,126.6046214
통합,4125051000,동두천시,생연1동,황매경로당,경기도 동두천시 생연동 173-16,한파쉼터,1,6072.0,3908.0,0.30303030303030304,0.0400197628458498,0.22412714097496705,1.5537359263050154,2114.4792221084954,37.9141172,127.0659788
통합,4827025000,밀양시,삼랑진읍,하양동경로당,경상남도 밀양시 삼랑진읍 삼랑진로 46-1 ,한파쉼터,1,4881.0,3908.0,0.47900020487605,0.01618520794919074,0.3401557057979922,1.2489764585465712,2073.675614124872,35.3850439,128.8255548
통합,4119259000,부천시 원미구,춘의동,춘의역7호선,경기도 부천시 원미구 길주로 지하406 (춘의동),한파쉼터,1,6783.0,3908.0,0.22703818369453044,0.04186937933067964,0.1714875423853752,1.7356704196519959,2018.9318321392016,37.5036898,126.7869617
통합,4119259000,부천시 원미구,춘의동,부천종합운동장역7호선,경기도 부천시 원미구 길주로 지하502 (춘의동),한파쉼터,1,6783.0,3908.0,0.22703818369453044,0.04186937933067964,0.1714875423853752,1.7356704196519959,2018.9318321392016,37.5054917,126.7974722
통합,4886038000,산청군,신안면,나임하우스경로당,경상남도 산청군 신안면 원지로4번길 70 (나임하우스),한파쉼터,1,5480.0,3908.0,0.35164233576642334,0.04251824817518248,0.25890510948905104,1.4022517911975434,1989.5148413510742,35.2999455,127.9779071
통합,3611052300,,어진동,한뜰마을3단지경로당,세종특별자치시 다솜로 290,한파쉼터,1,11118.0,3908.0,0.04155423637344846,0.11225040474905558,0.0627630868861306,2.844933469805527,1985.1945752302968,36.5046613,127.274169
통합,5218025000,정읍시,신태인읍,NH농협은행신태인농협,전북특별자치도 정읍시 신태인읍 정신로 1165,한파쉼터,1,4911.0,3908.0,0.43718183669313787,0.0285074322948483,0.314579515373651,1.2566530194472876,1941.4032497441144,35.6885223,126.8847555
민방위,1129072500,성북구,월곡2동,,,,,9226.0,7334.0,0.222457053053704,0.03609169240773858,0.16654744485991438,1.257976547586583,1932.9649054590757,37.601428,127.041219
통합,1117068500,용산구,한남동,한남동제1경로당,서울특별시 용산구 한남대로 48-3,한파쉼터,1,6918.0,3908.0,0.1946231119462311,0.060634530606345306,0.15442653754426536,1.7702149437052201,1891.1609617724243,37.5333933,127.0083151
통합,1117068500,용산구,한남동,한남동주민센터,서울특별시 용산구 대사관로5길 1 (한남동),한파쉼터,1,6918.0,3908.0,0.1946231119462311,0.060634530606345306,0.15442653754426536,1.7702149437052201,1891.1609617724243,37.5346068,127.000553
통합,4315052800,제천시,중앙동,중앙동사무소,충청북도 제천시 독순로 61,한파쉼터,1,5228.0,3908.0,0.3657230298393267,0.031560826319816375,0.2654743687834736,1.3377686796315251,1856.6891504605935,37.139219,128.210473
통합,4122037000,평택시,현덕면,운정1리마을회관,경기도 평택시 현덕면 운정1길 52 ,한파쉼터,1,5612.0,4618.0,0.35424091233071986,0.039201710620099785,0.2597291518175338,1.2152446946730187,1771.3406669553915,36.9681845,126.8973979
통합,3114064000,남구,선암동,선암호수공원노인복지관,울산광역시 남구 선암동 719,한파쉼터,1,13034.0,15806.0,0.21198404173699556,0.05009973914377781,0.16341875095903022,0.8246235606731621,1756.4481842338353,35.514706,129.3187803
통합,4721059000,영주시,휴천1동,남간경로당,경상북도 영주시 남간로 50 (휴천동),한파쉼터,1,6078.0,3908.0,0.24383020730503455,0.04985192497532083,0.1856367226061204,1.5552712384851586,1754.812538382804,36.8185032,128.6332271
통합,3114057000,남구,삼산동,국민은행(삼산),울산광역시 남구 돋질로 294,한파쉼터,1,15781.0,15806.0,0.13651725740357398,0.050969540788306365,0.1108529424189937,0.9984183221561432,1746.6033440947385,35.544011,129.33705
